City,Cloudiness,Country,Date,Humidity,Lat,Lng,Max Temp,Wind Speed
Hervey Bay,75,AU,1555697108,94,-25.3,152.85,71.01,8.05
Sur,0,OM,1555697937,35,22.57,59.53,86.1,7.72
Arman,100,RU,1555697937,98,59.7,150.17,26.16,4.97
Puno,75,PE,1555693200,47,-15.84,-70.03,59.0,1.12
Pevek,100,RU,1555697937,92,69.7,170.27,10.32,14.34
Albany,90,US,1555697340,56,42.65,-73.75,73.99,11.41
Mindelo,20,PT,1555697825,64,41.31,-8.72,71.6,10.29
Severodvinsk,40,RU,1555695000,97,64.56,39.82,39.2,2.24
Tambacounda,0,SN,1555697938,6,13.77,-13.67,109.5,6.22
Rikitea,16,PF,1555697280,74,-23.12,-134.97,78.72,7.63
Lavrentiya,0,RU,1555697938,83,65.58,-170.99,-4.81,5.57
Eureka,90,US,1555697905,93,40.8,-124.16,66.0,5.82
Puerto Madryn,0,AR,1555697939,33,-42.77,-65.04,67.56,21.07
Llanes,100,ES,1555697774,80,43.42,-4.75,64.99,11.12
Mar del Plata,51,AR,1555697379,38,-46.43,-67.52,63.6,24.05
Smithers,75,CA,1555693200,56,54.78,-127.17,41.0,3.36
Geraldton,40,CA,1555696800,27,49.72,-86.95,53.6,8.05
Hobart,75,AU,1555697294,93,-42.88,147.33,46.0,4.7
Yorosso,94,ML,1555697939,20,12.35,-4.78,102.66,5.5
Butaritari,100,KI,1555697383,77,3.07,172.79,83.04,17.02
Torbay,90,CA,1555697912,59,47.66,-52.73,39.2,11.41
Cayenne,98,GF,1555695000,83,4.94,-52.33,80.6,12.75
Ushuaia,75,AR,1555693200,75,-54.81,-68.31,46.4,28.86
Nome,40,US,1555697919,37,30.04,-94.42,72.0,20.8
Bredasdorp,92,ZA,1555696854,49,-34.53,20.04,68.0,9.17
Leshukonskoye,98,RU,1555697940,90,64.9,45.76,33.36,1.97
Kargasok,71,RU,1555697940,84,59.06,80.87,28.14,7.83
Margate,75,AU,1555697834,93,-43.03,147.26,46.0,4.7
Busselton,97,AU,1555697276,98,-33.64,115.35,43.0,24.99
Upernavik,0,GL,1555697380,64,72.79,-56.15,9.78,6.38
Fez,75,MA,1555696800,67,34.03,-5.02,59.0,6.93
Cape Town,75,ZA,1555697774,93,-33.93,18.42,64.0,5.82
Hermanus,98,ZA,1555696854,96,-34.42,19.24,61.0,8.01
Lebu,73,ET,1555697941,67,8.96,38.73,62.7,4.16
Lompoc,90,US,1555697855,100,34.64,-120.46,69.01,5.82
Kangaatsiaq,0,GL,1555697941,72,68.31,-53.46,14.82,9.46
Airai,10,TL,1555697941,73,-8.93,125.41,73.86,5.91
Port Elizabeth,90,US,1555697923,82,39.31,-74.98,79.0,16.02
Sorland,75,NO,1555694400,93,67.67,12.69,42.8,10.29
Salinopolis,100,BR,1555697736,80,-0.61,-47.36,81.96,15.95
Nikolskoye,0,RU,1555697737,50,59.7,30.79,52.0,13.42
Arraial do Cabo,0,BR,1555693200,74,-22.97,-42.02,82.4,13.87
Avarua,98,CK,1555695000,69,-21.21,-159.78,75.2,10.29
Vila Velha,40,BR,1555697900,70,-3.71,-38.6,86.0,11.41
Hilo,75,US,1555697909,82,19.71,-155.08,73.0,5.82
Cidreira,42,BR,1555697943,51,-30.17,-50.22,78.9,7.31
Paracuru,40,BR,1555697900,70,-3.41,-39.03,86.0,11.41
Carnarvon,70,ZA,1555697943,9,-30.97,22.13,69.36,12.66
Vaini,4,IN,1555693200,83,15.34,74.49,75.2,5.82
Saint-Augustin,0,FR,1555697930,37,44.83,-0.61,73.99,6.93
Chokurdakh,0,RU,1555697944,84,70.62,147.9,1.14,6.71
Poum,40,MK,1555695000,30,41.28,20.71,57.2,5.82
Padang,100,ID,1555697944,73,-0.92,100.36,85.2,7.63
Pochutla,40,MX,1555697767,58,15.74,-96.47,91.99,2.59
Castro,20,CL,1555693200,71,-42.48,-73.76,55.4,8.05
Kayes,0,ML,1555697944,4,14.44,-11.44,110.4,6.87
Luderitz,82,NA,1555697944,87,-26.65,15.16,58.56,13.33
Ponta do Sol,0,BR,1555697945,51,-20.63,-46.0,77.1,5.86
Qaanaaq,97,GL,1555697374,83,77.48,-69.36,-12.01,3.85
Ostrovnoy,94,RU,1555697384,93,68.05,39.51,32.82,8.79
Stephenville,1,US,1555697916,31,32.22,-98.2,66.99,20.8
Fort Nelson,40,CA,1555693200,29,58.81,-122.69,50.0,16.11
Lasa,75,CY,1555697760,67,34.92,32.53,62.6,10.29
Plunge,0,LT,1555696200,81,55.91,21.84,42.8,5.82
Kendari,50,ID,1555697947,96,-3.99,122.52,75.48,2.01
Puerto Ayora,20,EC,1555696879,70,-0.74,-90.35,86.0,16.11
Vardo,90,US,1555697662,83,39.62,-77.74,72.0,8.05
Ancud,20,CL,1555693200,71,-41.87,-73.83,55.4,8.05
Balabac,71,PH,1555697948,75,7.99,117.06,84.3,10.92
Peleduy,36,RU,1555697948,91,59.63,112.75,23.1,9.55
Kununurra,12,AU,1555695000,88,-15.77,128.74,73.4,3.36
Bethel,40,US,1555692960,85,60.79,-161.76,24.8,4.7
Ambulu,55,ID,1555697951,79,-8.35,113.61,81.96,9.28
Saint-Philippe,90,CA,1555697920,93,45.36,-73.48,53.01,14.99
Punta Arenas,20,CL,1555696386,66,-53.16,-70.91,51.8,28.86
Chumikan,17,RU,1555697951,86,54.72,135.31,13.38,7.38
Bluff,0,AU,1555697375,88,-23.58,149.07,65.58,11.65
Bethanien,94,NA,1555697952,11,-26.5,17.16,74.22,11.61
Atuona,33,PF,1555697382,72,-9.8,-139.03,83.58,10.16
Yellowknife,90,CA,1555696364,79,62.45,-114.38,28.4,10.29
Camacha,40,PT,1555695000,59,33.08,-16.33,64.4,17.22
Bulembu,3,SZ,1555697784,82,-25.95,31.13,72.0,5.82
Cockburn Town,5,TC,1555697952,76,21.46,-71.14,78.9,20.58
Almaznyy,0,RU,1555695000,41,48.03,40.04,42.8,11.18
Honningsvag,60,NO,1555697952,70,70.98,25.97,41.64,15.48
Kutum,15,SD,1555697953,11,14.2,24.66,85.02,9.51
Coquimbo,90,CL,1555693200,77,-29.95,-71.34,59.0,6.93
Rovaniemi,0,FI,1555694400,48,66.5,25.72,42.8,3.36
Vila Franca do Campo,75,PT,1555695000,93,37.72,-25.43,64.4,4.7
Saint-Michel-des-Saints,100,CA,1555697953,90,46.68,-73.92,37.68,8.23
Manggar,100,ID,1555697953,91,-2.88,108.27,78.18,1.77
East London,0,ZA,1555696800,88,-33.02,27.91,71.6,6.93
Crateus,100,BR,1555697953,89,-5.18,-40.68,80.7,5.5
Port Alfred,99,ZA,1555697832,91,-33.59,26.89,66.0,6.89
Havoysund,66,NO,1555694400,75,71.0,24.66,41.0,17.22
Guerrero Negro,87,MX,1555697954,72,27.97,-114.04,63.96,10.4
Ranong,87,TH,1555697954,75,9.96,98.62,85.2,8.39
Belleville,90,CA,1555697704,93,44.16,-77.39,51.01,11.41
Georgetown,40,GY,1555693200,66,6.8,-58.16,91.4,13.87
Wattegama,99,LK,1555697954,92,7.35,80.68,75.3,0.87
Ahipara,1,NZ,1555697954,73,-35.17,173.16,63.6,8.19
Cefalu,26,IT,1555697862,67,38.04,14.02,64.99,3.0
Khatanga,48,RU,1555697955,97,71.98,102.47,-6.79,3.31
Padre Paraiso,9,BR,1555697955,62,-17.07,-41.48,85.02,2.04
Guantanamo,75,BO,1555693200,66,-16.14,-62.05,86.0,11.41
Bandarbeyla,0,SO,1555697955,68,9.49,50.81,80.52,10.09
Anadyr,0,RU,1555696386,84,64.73,177.51,8.6,6.71
Mishelevka,100,RU,1555697955,52,52.86,103.17,27.42,3.78
Tual,35,ID,1555697955,77,-5.67,132.75,83.94,13.06
New Norfolk,75,AU,1555697294,93,-42.78,147.06,46.0,4.7
Itaituba,40,BR,1555693200,63,-4.26,-55.99,91.4,6.93
Zeya,98,RU,1555697956,52,53.74,127.27,24.54,6.73
Kodiak,20,US,1555697910,36,39.95,-94.76,61.0,14.99
Kaitangata,100,NZ,1555697902,90,-46.28,169.85,51.01,3.0
Jamestown,77,AU,1555697956,29,-33.21,138.6,73.14,10.4
Cabo San Lucas,20,MX,1555696928,28,22.89,-109.91,93.0,2.24
Mecca,0,SA,1555697957,44,21.43,39.83,76.2,12.77
Oranjemund,86,ZA,1555697957,91,-28.55,16.43,60.18,6.29
Port-Gentil,20,GA,1555696800,94,-0.72,8.78,80.6,11.41
Tiksi,64,RU,1555697957,78,71.64,128.87,11.76,10.25
Kavieng,99,PG,1555697375,74,-2.57,150.8,83.22,7.61
Pundaguitan,20,PH,1555697958,73,6.37,126.17,81.78,6.08
Mataura,100,NZ,1555696808,97,-46.19,168.86,51.01,2.3
Kapit,87,MY,1555697958,96,2.02,112.94,73.68,0.2
Kavaratti,72,IN,1555697958,73,10.57,72.64,84.3,13.18
General Roca,0,AR,1555693200,33,-39.03,-67.58,73.4,5.82
Flin Flon,90,CA,1555697400,89,54.77,-101.88,48.2,2.24
Belaya Gora,0,RU,1555697958,82,68.54,146.19,0.78,3.24
Hasaki,75,JP,1555697826,66,35.73,140.83,51.8,13.87
San Cristobal,75,EC,1555697777,72,-0.39,-78.55,68.0,5.82
Tevaitoa,3,PF,1555697959,75,-16.78,-151.5,84.3,9.73
Mattru,97,SL,1555697959,63,7.62,-11.83,87.72,7.94
Port Blair,31,IN,1555697381,73,11.67,92.75,85.02,10.2
Strezhevoy,0,RU,1555695000,86,60.73,77.6,33.8,6.71
Te Anau,97,NZ,1555697959,94,-45.41,167.72,43.26,2.95
Grand Gaube,40,MU,1555697942,83,-20.01,57.66,78.8,5.82
San Patricio,88,PY,1555697960,49,-26.98,-56.83,86.64,2.95
Tuktoyaktuk,90,CA,1555693200,77,69.44,-133.03,6.8,12.75
Sarangani,16,PH,1555697960,72,5.4,125.46,83.76,11.92
Esna,75,RO,1555693200,87,45.2,27.57,46.4,9.17
Nabire,100,ID,1555697961,99,-3.36,135.5,70.62,1.9
Mont-de-Marsan,0,FR,1555697949,37,43.89,-0.5,71.6,13.87
Faanui,7,PF,1555697377,73,-16.48,-151.75,84.48,8.25
Sitka,0,US,1555697722,33,37.17,-99.65,62.01,8.99
Brae,2,GB,1555694400,58,60.4,-1.35,55.4,24.16
Binga,84,ZW,1555697961,75,-17.62,27.34,71.52,4.52
El Vigia,75,MX,1555697705,23,26.85,-109.72,100.0,8.05
Vao,85,EE,1555697962,54,59.1,26.19,48.12,6.89
Dunedin,100,NZ,1555697522,92,-45.87,170.5,52.0,4.0
Rocha,97,UY,1555697816,46,-34.48,-54.34,79.62,7.63
North Myrtle Beach,90,US,1555697931,94,33.83,-78.68,77.0,14.99
Ornskoldsvik,78,SE,1555694400,66,63.29,18.72,53.6,11.41
Sabratah,90,LY,1555697962,55,32.79,12.49,68.82,31.54
Wajima,0,JP,1555697962,47,37.4,136.9,48.48,6.29
Jussara,0,BR,1555697962,51,-15.87,-50.87,90.6,1.03
Nanortalik,0,GL,1555697963,58,60.14,-45.24,31.74,24.18
Srednekolymsk,41,RU,1555697963,86,67.46,153.71,4.02,6.71
Dukat,3,RS,1555697695,43,42.44,22.31,57.0,5.99
Kedrovyy,0,RU,1555695000,45,56.17,91.82,26.6,8.95
Masuguru,57,MZ,1555697963,93,-11.38,38.46,73.86,4.61
Marzuq,41,YE,1555697963,43,14.4,46.47,82.68,7.31
Frederikshavn,0,DK,1555697964,52,57.44,10.53,50.82,2.33
Los Llanos de Aridane,40,ES,1555697833,68,28.66,-17.92,66.2,17.22
Estreito,40,BR,1555697816,61,-22.44,-42.8,84.2,8.05
Azul,2,AR,1555697964,27,-36.78,-59.86,80.52,13.42
Souillac,0,FR,1555697930,33,45.6,-0.6,77.0,3.36
Makakilo City,75,US,1555697786,83,21.35,-158.09,77.0,6.93
San Alberto,20,PY,1555693200,52,-24.98,-54.91,87.8,5.82
Tofield,75,CA,1555697937,46,53.37,-112.67,52.0,12.75
Freeport,40,BS,1555693200,62,26.54,-78.7,86.0,21.92
Oktyabrskiy,0,RU,1555697185,39,55.61,37.97,48.2,2.24
Klaksvik,40,FO,1555696200,87,62.23,-6.59,50.0,16.11
Cabedelo,40,BR,1555693200,74,-6.97,-34.84,84.2,10.29
Tura,6,IN,1555697966,48,25.52,90.21,79.44,4.27
Barrow,0,AR,1555697966,28,-38.31,-60.23,74.4,6.62
Iqaluit,90,CA,1555696800,86,63.75,-68.52,28.0,17.22
Chuy,97,UY,1555697905,64,-33.69,-53.46,74.4,6.78
Veraval,0,FR,1555697959,46,49.65,0.71,72.0,6.93
Benavente,40,PT,1555697883,77,38.98,-8.82,66.99,6.93
Ilulissat,0,GL,1555696200,44,69.22,-51.1,19.4,6.93
Mount Gambier,90,AU,1555693200,42,-37.83,140.78,64.4,11.41
Cesky Krumlov,0,CZ,1555697947,40,48.81,14.32,63.0,4.0
Christchurch,90,NZ,1555697601,100,-43.53,172.64,55.0,2.24
Nacozari,45,MX,1555697715,39,25.34,-108.26,91.99,3.0
Sisimiut,0,GL,1555697967,40,66.94,-53.67,24.36,5.19
Dharchula,26,IN,1555697827,51,29.85,80.53,39.66,7.76
Tiznit,0,MA,1555697877,74,29.7,-9.73,63.06,34.67
Victoria,75,BN,1555695000,94,5.28,115.24,78.8,4.14
Saint-Pierre,0,FR,1555697862,43,48.95,4.24,71.6,8.05
Berlevag,3,NO,1555697969,72,70.86,29.09,39.84,18.72
Beloha,89,MG,1555697969,76,-25.17,45.06,71.34,14.54
Prince Rupert,75,CA,1555697340,75,54.32,-130.32,42.8,6.93
Anaconda,1,US,1555696894,33,46.13,-112.94,66.99,12.75
Port Shepstone,0,ZA,1555697969,95,-30.74,30.45,67.56,6.33
Neepawa,75,CA,1555696800,30,50.23,-99.46,66.2,28.86
Clyde River,20,CA,1555693200,83,70.47,-68.59,-5.81,5.82
Belmonte,92,PT,1555697905,57,40.36,-7.35,66.0,5.99
Hamilton,40,BM,1555696880,60,32.3,-64.78,72.0,16.11
Larsnes,0,NO,1555697820,50,62.2,5.58,55.99,9.17
Port Hardy,20,CA,1555693200,76,50.7,-127.42,48.2,10.29
Thompson,90,CA,1555693200,57,55.74,-97.86,48.2,5.82
Rio Grande City,1,US,1555697438,21,26.38,-98.82,84.99,6.93
High Level,40,CA,1555696800,27,58.52,-117.13,53.6,13.87
Saskylakh,38,RU,1555697972,93,71.97,114.09,-4.99,3.98
Esperance,40,TT,1555697795,52,10.24,-61.45,89.6,19.46
Kostomuksha,5,RU,1555697972,84,64.59,30.6,36.78,4.76
Pontianak,100,ID,1555697972,68,-0.02,109.34,85.2,1.48
Ribeira Grande,75,PT,1555695000,88,38.52,-28.7,64.4,2.24
Port Moresby,100,PG,1555697972,78,-9.47,147.16,80.16,11.77
Dubbo,0,AU,1555695000,88,-32.25,148.6,62.6,13.87
Mokhsogollokh,97,RU,1555697973,76,61.4,128.95,21.12,9.91
Manaure,90,CO,1555693200,55,11.78,-72.45,89.6,16.11
Meulaboh,100,ID,1555697973,75,4.14,96.13,84.12,10.78
Victoria,75,BN,1555695000,94,5.28,115.24,78.8,4.14
Talnakh,0,RU,1555693200,83,69.49,88.39,-7.61,11.18
Dingle,27,PH,1555697973,74,11.0,122.67,76.56,5.77
Homer,75,US,1555697571,64,59.64,-151.54,35.01,12.75
Kaeo,19,NZ,1555697284,90,-35.1,173.78,57.0,8.1
Bermeo,0,ES,1555697965,77,43.42,-2.72,64.99,5.82
Kapaa,40,US,1555697733,73,22.08,-159.32,75.99,16.11
Dankov,0,RU,1555695000,30,53.25,39.16,44.6,4.47
Araouane,0,ML,1555697974,8,18.9,-3.53,97.98,8.3
Springfield,40,US,1555697732,47,37.22,-93.29,59.0,21.92
Sant Pere de Ribes,20,ES,1555697949,59,41.26,1.77,66.2,26.4
Salalah,75,OM,1555692600,70,17.01,54.1,84.2,8.05
Norman Wells,90,CA,1555693200,86,65.28,-126.83,28.4,6.93
Grindavik,75,IS,1555697221,75,63.84,-22.43,48.99,31.09
Pitkyaranta,100,RU,1555697975,79,61.57,31.48,39.48,11.16
Beringovskiy,0,RU,1555697976,85,63.05,179.32,17.52,8.14
Tuatapere,100,NZ,1555696808,97,-46.13,167.69,51.01,6.42
Saldanha,86,PT,1555697976,64,41.42,-6.55,58.74,12.35
Tasiilaq,76,GL,1555692600,80,65.61,-37.64,39.2,6.93
Guilin,75,CN,1555693200,94,25.28,110.29,73.4,4.47
Bonthe,82,SL,1555697976,67,7.53,-12.5,86.64,10.45
Hithadhoo,100,MV,1555697976,79,-0.6,73.08,85.38,13.91
Leningradskiy,6,RU,1555697977,94,69.38,178.42,-2.65,6.15
Lorengau,94,PG,1555697977,92,-2.02,147.27,76.92,2.24
Broken Hill,32,AU,1555693200,32,-31.97,141.45,68.0,9.17
Lethem,95,GY,1555697977,29,3.38,-59.8,99.06,12.57
Usinsk,100,RU,1555697977,97,66.0,57.56,32.46,7.27
Turukhansk,59,RU,1555697977,94,65.8,87.96,0.24,2.53
Watertown,1,US,1555697752,54,44.9,-97.12,59.0,11.41
Semnan,20,IR,1555693200,32,35.58,53.39,66.2,4.7
Hendek,40,TR,1555696200,66,40.8,30.75,48.2,4.7
Severo-Kurilsk,1,RU,1555697381,91,50.68,156.12,34.08,21.85
Mahebourg,40,MU,1555697942,83,-20.41,57.7,78.8,5.82
Port Hueneme,90,US,1555697975,77,34.15,-119.2,81.0,5.82
Hay River,75,CA,1555697580,86,60.82,-115.79,33.8,4.7
Careiro da Varzea,48,BR,1555697978,73,-3.2,-59.81,89.16,3.69
Bambous Virieux,40,MU,1555697942,83,-20.34,57.76,78.8,5.82
Flinders,34,AU,1555697867,100,-34.58,150.85,64.99,5.82
Aklavik,90,CA,1555696800,78,68.22,-135.01,15.8,4.7
Vinh,0,VN,1555697979,45,18.67,105.69,91.68,10.56
Asyut,0,EG,1555693200,33,27.18,31.19,77.0,16.11
Provideniya,100,RU,1555697979,66,64.42,-173.23,9.78,3.42
Moranbah,0,AU,1555697979,94,-22.0,148.04,64.32,10.58
Churapcha,35,RU,1555697979,92,62.0,132.43,15.9,6.55
Itarema,100,BR,1555697979,85,-2.92,-39.92,82.86,7.72
Carballo,20,ES,1555697966,63,43.21,-8.69,68.0,6.93
Dikson,94,RU,1555697980,100,73.51,80.55,-3.37,2.8
Toowoomba,40,AU,1555697611,93,-27.56,151.95,66.0,17.22
Torrington,1,US,1555697952,26,42.06,-104.18,70.0,6.93
Sabha,0,LY,1555697980,11,27.03,14.43,86.64,10.29
Effingham,90,US,1555697759,75,39.12,-88.54,48.2,18.34
Cobh,75,IE,1555697556,77,51.85,-8.29,59.0,6.93
Eenhana,6,NA,1555697981,30,-17.48,16.34,81.06,5.79
Kettering,0,GB,1555697763,34,52.4,-0.73,71.01,9.17
Bogatyye Saby,0,RU,1555697981,70,56.01,50.45,30.48,2.42
Yulara,50,AU,1555693200,27,-25.24,130.99,62.6,4.7
Soma,17,JP,1555697756,67,37.8,140.92,41.0,1.01
Ponta Delgada,75,PT,1555695000,93,37.73,-25.67,64.4,4.7
Beyneu,37,KZ,1555697981,60,45.32,55.19,44.52,5.79
Bathsheba,75,BB,1555693200,62,13.22,-59.52,86.0,25.28
Cherskiy,1,RU,1555697982,93,68.75,161.3,-6.61,6.17
Namibe,10,AO,1555697382,74,-15.19,12.15,75.84,11.54
Levice,0,SK,1555697547,22,48.22,18.6,64.4,8.05
La Ronge,75,CA,1555696800,62,55.1,-105.3,51.8,8.05
Kud,0,IN,1555697982,54,33.08,75.29,63.6,6.11
Mount Vernon,90,US,1555697941,93,48.42,-122.33,55.4,6.93
Fortuna,75,ES,1555697968,87,38.18,-1.13,59.0,1.12
Maputo,20,MZ,1555696800,78,-25.97,32.57,77.0,14.99
Tautira,20,PF,1555696381,66,-17.73,-149.15,84.2,4.7
Raudeberg,24,NO,1555694400,46,61.99,5.14,53.6,10.29
Ileza,100,RU,1555697984,92,61.05,43.9,38.58,3.85
Kahului,40,US,1555697774,69,20.89,-156.47,75.2,16.11
Heerenveen,0,NL,1555697925,67,52.96,5.93,71.01,12.75
Kolokani,0,ML,1555697984,5,13.58,-8.03,106.62,5.82
Lac du Bonnet,50,CA,1555697973,34,50.25,-96.06,62.01,8.99
Rockhampton,1,AU,1555695000,82,-23.38,150.51,68.0,4.7
Pachino,0,IT,1555697713,52,36.72,15.09,64.4,10.29
Pareora,63,NZ,1555697705,97,-44.49,171.21,48.0,3.56
Celestun,30,MX,1555697985,75,20.87,-90.4,77.28,22.15
Khawhai,32,IN,1555697985,73,23.52,93.19,63.78,2.37
Saint-Leu,0,RE,1555697782,69,-21.15,55.28,78.8,5.82
Douglas,46,US,1555697930,13,31.34,-109.55,82.0,8.01
Piacabucu,96,BR,1555697986,67,-10.41,-36.43,86.64,9.33
Basco,1,US,1555697979,44,40.33,-91.2,57.99,18.34
Coihaique,0,CL,1555693200,50,-45.58,-72.07,57.2,3.36
Solnechnyy,99,RU,1555697987,88,50.72,136.64,26.7,7.23
Severo-Yeniseyskiy,88,RU,1555697987,97,60.37,93.04,12.84,4.52
Barcelos,20,PT,1555697825,64,41.53,-8.62,71.6,10.29
Kieta,100,PG,1555697987,74,-6.22,155.63,82.68,4.45
Guadalupe y Calvo,67,MX,1555697987,8,26.09,-106.96,78.18,4.05
Caravelas,9,BR,1555697987,63,-17.73,-39.27,87.0,6.13
Longyearbyen,90,NO,1555696200,93,78.22,15.63,35.6,6.93
Vostok,59,RU,1555697988,70,46.45,135.83,25.62,3.33
Shubarshi,0,KZ,1555697988,35,48.59,57.19,36.78,8.43
Marawi,18,PH,1555697865,89,8.0,124.29,75.99,5.99
Rock Springs,1,US,1555696440,30,41.59,-109.2,57.2,13.87
Oistins,75,BB,1555693200,62,13.07,-59.53,86.0,25.28
Wajir,40,KE,1555693200,36,1.75,40.07,95.0,3.36
Nuuk,0,GL,1555696360,63,64.17,-51.74,28.0,11.41
Comodoro Rivadavia,0,AR,1555693200,34,-45.87,-67.48,66.2,9.17
Juneau,75,US,1555697717,80,58.3,-134.42,41.0,11.41
Jijiga,97,ET,1555697989,86,9.35,42.8,63.78,5.06
Naze,55,NG,1555697989,63,5.43,7.07,86.46,7.31
Pangody,75,RU,1555697989,93,65.85,74.49,16.26,14.54
Tilichiki,83,RU,1555697989,88,60.47,166.1,29.76,2.66
Katsuura,75,JP,1555697290,66,33.93,134.5,53.6,10.29
Plettenberg Bay,68,ZA,1555697990,63,-34.05,23.37,62.34,3.74
Hammonton,90,US,1555697950,78,39.64,-74.8,79.0,19.46
Napier,0,NZ,1555697404,97,-39.49,176.92,45.0,4.0
Yarim,89,YE,1555697990,68,14.3,44.38,70.62,2.48
Copiapo,40,CL,1555693200,55,-27.37,-70.33,66.2,4.7
Praia,20,BR,1555697915,39,-20.25,-43.81,84.2,5.82
Tecoanapa,5,MX,1555693320,61,16.99,-99.26,82.4,10.29
Kalnibolotskaya,100,RU,1555697716,44,46.01,40.45,46.0,15.23
Dasoguz,0,TM,1555695000,66,41.84,59.97,48.2,11.41
Bougouni,91,ML,1555697991,23,11.42,-7.49,101.22,4.21
Bemidji,1,US,1555697812,35,47.48,-94.89,61.0,16.11
Sao Joao da Barra,20,BR,1555693200,48,-21.64,-41.05,87.8,6.93
Touros,75,BR,1555693200,66,-5.2,-35.46,87.8,11.41
Marsa Matruh,20,EG,1555693200,59,31.35,27.25,62.6,8.05
Panama City,40,US,1555697858,72,30.16,-85.65,69.8,31.09
Contai,1,IN,1555697992,49,21.78,87.75,81.06,4.92
Dauphin,20,CA,1555696800,25,51.15,-100.04,66.2,24.16
Miquelon,90,PM,1555696800,100,47.1,-56.38,33.8,31.09
Cankuzo,75,BI,1555697992,87,-3.22,30.55,64.5,3.44
Kunya,27,NG,1555693200,15,12.22,8.53,96.8,3.36
Jianhu,75,CN,1555697588,94,29.93,120.57,72.0,2.24
Oksovskiy,100,RU,1555697993,96,62.61,39.91,39.12,6.08
Bure,7,NG,1555697993,9,10.52,10.33,93.3,4.83
Lima,0,PE,1555697404,69,-12.06,-77.04,75.2,8.05
Albanel,90,CA,1555697779,80,48.88,-72.44,41.0,10.29
Bani,12,PH,1555697993,83,15.89,120.27,80.16,1.19
Kumta,28,IN,1555697994,75,14.42,74.4,84.66,14.97
Avera,75,US,1555697993,94,33.19,-82.53,71.6,17.22
Madaoua,0,NE,1555697994,4,14.07,5.96,95.64,8.7
Alyangula,90,AU,1555693200,94,-13.85,136.42,75.2,12.8
Ambon,0,FR,1555697969,56,47.55,-2.56,71.6,6.93
Southbridge,90,US,1555697905,64,42.08,-72.03,75.2,20.8
Mackay,40,CA,1555696800,45,53.65,-115.58,46.4,18.34
Coihueco,90,CL,1555693200,100,-36.63,-71.83,53.6,4.7
Nurota,90,UZ,1555695000,82,40.56,65.69,55.4,9.17
Derzhavinsk,100,KZ,1555697995,76,51.1,66.31,30.48,14.0
Mazamari,100,PE,1555697910,82,-11.33,-74.53,40.56,9.04
El Tigre,100,VE,1555697904,33,8.89,-64.25,94.38,10.2
San Rafael,2,AR,1555697996,37,-34.61,-68.33,77.82,9.17
Kotelnikovo,68,RU,1555697996,51,47.63,43.14,43.08,9.06
Coahuayana,13,MX,1555697997,19,18.62,-100.35,99.78,4.56
Manicore,99,BR,1555697997,57,-5.81,-61.3,91.32,2.66
Alta Floresta,51,BR,1555697997,51,-9.87,-56.08,91.5,3.8
Kisangani,96,CD,1555697998,55,0.52,25.21,82.32,1.77
Humaita,40,AR,1555696800,51,-24.93,-65.37,82.4,4.7
Bonfim,0,BR,1555697915,51,-20.33,-44.24,81.0,4.85
Shenavan,40,TR,1555696800,75,40.05,43.92,46.4,4.7
Paramirim,22,BR,1555697999,41,-13.44,-42.24,88.8,2.13
Eden,75,CA,1555696800,30,50.38,-99.47,66.2,28.86
Thunder Bay,20,CA,1555697859,23,48.41,-89.26,60.8,8.05
Kitimat,75,CA,1555696800,87,54.02,-128.69,42.8,10.29
Dehui,0,CN,1555693200,30,44.53,125.71,41.0,6.71
Cairns,40,AU,1555697621,83,-16.92,145.77,73.4,11.41
Hofn,100,IS,1555698000,99,64.25,-15.21,38.04,18.5
Baker City,20,US,1555697769,40,44.77,-117.83,71.01,16.11
Choma,100,ZM,1555698000,89,-16.81,26.98,67.02,5.95
Digha,0,IN,1555698001,66,21.62,87.51,84.48,4.61
Borkenes,100,NO,1555697793,87,68.77,16.17,46.4,43.62
Leninogorsk,73,RU,1555698001,62,54.6,52.45,35.7,4.29
Lucea,20,JM,1555697767,70,18.44,-78.17,87.01,13.87
Esso,84,RU,1555698002,83,55.93,158.7,18.96,0.54
Kijang,75,KR,1555693200,62,35.24,129.21,51.8,5.82
Biu,32,NG,1555698002,9,10.61,12.19,95.82,1.79
Cassilandia,10,BR,1555698002,54,-19.11,-51.73,84.48,4.5
Kamenka,0,RU,1555698003,35,53.19,44.05,40.38,2.33
Bubaque,1,GW,1555698003,72,11.28,-15.83,79.08,15.37
Kloulklubed,90,PW,1555692600,94,7.04,134.26,77.0,8.05
Bessonovka,0,RU,1555698003,36,53.31,45.04,40.02,2.19
Biak,99,ID,1555698004,99,-0.91,122.88,66.48,1.43
Baykit,87,RU,1555698004,87,61.68,96.39,8.88,13.35
Tucurui,53,BR,1555698004,55,-3.77,-49.67,90.6,4.34
Soria,100,ES,1555698004,69,41.76,-2.46,47.94,16.04
Paamiut,0,GL,1555698004,63,61.99,-49.67,28.32,13.6
Jablonne v Podjestedi,0,CZ,1555697903,49,50.77,14.76,64.0,1.01
Myrtle Beach,75,US,1555697843,83,33.7,-78.89,77.0,16.11
Pangnirtung,90,CA,1555696800,85,66.15,-65.72,15.8,10.29
Kanniyakumari,99,IN,1555697780,72,8.08,77.57,85.92,7.58
San Quintin,0,PH,1555698005,80,17.54,120.52,78.36,1.81
Back Mountain,75,US,1555698003,64,41.34,-76.0,75.0,9.17
Sao Jose da Coroa Grande,98,BR,1555698005,63,-8.9,-35.15,87.36,10.87
Majene,78,ID,1555698005,68,-3.54,118.97,84.84,5.08
Juegang,83,CN,1555697710,89,32.31,121.18,62.01,11.05
Samarai,17,PG,1555698006,91,-10.62,150.67,72.42,3.67
Kargil,0,PK,1555698006,61,34.56,76.13,25.98,3.6
Wangkui,29,CN,1555698006,28,46.83,126.5,40.56,12.57
Ibra,0,OM,1555698007,19,22.69,58.55,86.82,0.45
Lake Havasu City,1,US,1555697776,15,34.47,-114.34,87.01,5.82
Monrovia,75,LR,1555696800,83,6.33,-10.8,80.6,3.36
Kardla,81,EE,1555697416,28,58.44,26.57,57.2,8.05
Zhezkazgan,100,KZ,1555698008,83,47.8,67.71,42.36,6.06
Narsaq,0,GL,1555698008,39,60.91,-46.05,36.6,20.4
Markova,0,RU,1555697419,58,52.21,104.21,26.6,4.47
Ukiah,1,US,1555697908,52,39.15,-123.21,71.01,3.51
Maniitsoq,0,GL,1555698009,45,65.42,-52.9,22.38,4.05
Parksville,90,US,1555698004,88,33.79,-82.22,71.6,17.22
Macau,100,BR,1555698009,68,-5.11,-36.64,85.02,13.87
Boca do Acre,45,BR,1555698010,40,-8.76,-67.39,96.9,2.42
Puerto Colombia,20,CO,1555693200,55,10.99,-74.96,91.4,11.41
Pointe-Noire,72,CG,1555698010,86,-4.8,11.85,82.86,8.43
Marsh Harbour,5,BS,1555698010,80,26.54,-77.06,77.82,20.2
Matara,90,PE,1555693200,66,-13.74,-72.9,53.6,8.01
Bartica,75,GY,1555693200,52,6.41,-58.62,91.4,16.11
Goderich,100,CA,1555697929,99,43.74,-81.71,39.99,17.0
Ulladulla,35,AU,1555697794,100,-35.36,150.48,60.8,5.82
Skelleftea,82,SE,1555697367,71,64.75,20.95,50.0,4.7
Hongjiang,88,CN,1555698012,98,27.21,109.83,65.94,3.31
Mitu,19,IR,1555698012,68,36.2,46.09,43.44,5.55
Antofagasta,20,CL,1555693200,59,-23.65,-70.4,66.2,11.41
Trzebnica,0,PL,1555698004,55,51.31,17.06,66.2,6.93
Hovd,0,NO,1555697716,36,63.83,10.7,60.8,5.82
Umba,69,RU,1555698012,91,66.69,34.34,34.08,5.06
Saint Anthony,1,US,1555697808,39,43.97,-111.68,64.0,13.87
Petropavlovsk-Kamchatskiy,75,RU,1555693200,86,53.05,158.65,28.4,4.47
Kholtoson,0,RU,1555698013,34,50.3,103.31,17.7,3.06
Kropotkin,100,RU,1555697716,44,45.43,40.58,46.0,14.99
Podgornoye,65,RU,1555698014,83,57.79,82.64,27.24,7.54
Skjervoy,100,NO,1555698014,87,70.03,20.97,41.64,12.59
Quatre Cocos,40,MU,1555697942,83,-20.21,57.76,78.8,5.82
Mnogovershinnyy,99,RU,1555698014,97,53.94,139.92,28.14,5.17
Vallenar,3,CL,1555698015,42,-28.58,-70.76,72.06,7.56
Bisira,99,PA,1555698015,57,8.52,-81.71,84.84,3.04
Codrington,75,AU,1555697996,93,-28.95,153.24,71.6,4.81
Hambantota,95,LK,1555698015,72,6.12,81.12,85.2,4.99
Zyryanka,70,RU,1555698015,88,65.73,150.89,9.78,4.12
Kautokeino,80,NO,1555698015,94,69.01,23.04,34.8,11.07
Maceio,40,BR,1555696800,58,-9.67,-35.74,87.8,16.11
Bilma,0,NE,1555698016,9,18.69,12.92,82.14,5.41
Tagusao,39,PH,1555698016,75,9.19,117.81,82.14,4.92
Richards Bay,0,ZA,1555698016,80,-28.77,32.06,77.82,27.69
Ambunti,2,PG,1555698017,99,-4.22,142.82,72.42,0.6
Niono,0,ML,1555698017,5,14.25,-5.99,107.7,4.79
Vilyuysk,97,RU,1555698018,80,63.75,121.63,21.48,13.73
Kruisfontein,100,ZA,1555698018,69,-34.0,24.73,62.34,5.88
Ahuimanu,75,US,1555697751,83,21.44,-157.84,77.0,6.93
Karratha,99,AU,1555698018,32,-20.74,116.85,81.06,17.63
Vredendal,51,ZA,1555698019,90,-31.68,18.49,62.34,5.53
Muroto,6,JP,1555698019,88,33.37,134.14,54.42,4.52
Whitehorse,75,CA,1555697817,32,60.72,-135.06,37.99,8.05
Denpasar,75,ID,1555695000,94,-8.65,115.22,78.8,4.7
Key West,90,US,1555697798,54,47.93,-96.78,60.8,20.8
Candolim,23,IN,1555698019,76,15.52,73.76,84.3,17.29
Elliot,1,ZA,1555698020,28,-31.33,27.85,61.62,7.52
Mersing,89,MY,1555697894,93,2.43,103.84,77.64,1.3
Yeppoon,35,AU,1555695000,82,-23.13,150.74,68.0,4.7
Madera,1,US,1555697867,39,36.96,-120.06,81.0,4.7
Havre-Saint-Pierre,90,CA,1555696800,93,50.23,-63.6,35.6,4.7
Port Keats,11,AU,1555698020,75,-14.25,129.55,80.88,2.53
Wanning,0,AT,1555698018,39,48.64,13.53,64.99,7.34
Napasar,0,IN,1555698021,30,27.97,73.56,83.4,5.61
Taoudenni,0,ML,1555698021,9,22.68,-3.98,92.94,17.4
Tabou,100,CI,1555698021,78,4.42,-7.36,81.24,3.62
Gwadar,0,PK,1555698021,81,25.12,62.33,78.36,9.1
Egvekinot,100,RU,1555698021,90,66.32,-179.17,-0.31,9.64
Singaraja,47,ID,1555698022,71,-8.11,115.08,83.76,7.18
Fuerte Olimpo,9,BR,1555698022,36,-21.04,-57.87,98.52,6.31
Nong Han,3,TH,1555698022,40,17.36,103.11,92.58,9.06
Natal,40,BR,1555693200,66,-5.81,-35.21,87.8,12.75
La Libertad,20,PE,1555696800,32,-16.38,-71.56,68.0,12.75
Marilia,82,BR,1555698022,70,-8.64,-48.82,87.36,2.59
Hukuntsi,85,BW,1555698023,22,-23.98,21.76,82.68,6.64
Nicoya,75,CR,1555697766,49,10.15,-85.45,89.6,6.93
Opuwo,41,NA,1555698023,34,-18.06,13.84,82.68,7.7
Alekseyevsk,76,RU,1555698023,79,57.84,108.35,18.96,11.95
Botshabelo,20,ZA,1555696800,68,-29.23,26.73,64.4,6.93
Byron Bay,75,AU,1555697996,93,-28.65,153.62,71.6,3.8
Keti Bandar,0,PK,1555698024,78,24.14,67.45,78.54,12.95
Isangel,47,VU,1555698024,81,-19.55,169.27,79.98,23.8
Oksfjord,96,NO,1555697729,75,70.24,22.35,42.8,17.22
Fare,3,PF,1555698024,75,-16.7,-151.02,84.3,9.73
Bilibino,81,RU,1555698024,97,68.06,166.44,-0.13,7.7
Sukumo,0,JP,1555698024,87,32.94,132.72,57.12,6.22
Ormara,0,PK,1555698024,55,25.21,64.64,79.26,12.03
Tikapur,0,NP,1555698025,37,28.53,81.12,77.1,3.94
Evensk,76,RU,1555698025,84,61.92,159.24,27.24,2.3
Suntar,100,RU,1555698025,93,62.16,117.65,25.98,6.78
Omboue,95,GA,1555698025,81,-1.57,9.26,83.76,14.34
Monastyrshchina,70,RU,1555698025,52,54.35,31.84,45.06,4.45
Tigil,79,RU,1555698025,87,57.8,158.67,31.2,2.71
Portland,90,US,1555697651,77,45.52,-122.67,66.0,4.7
Constitucion,0,MX,1555698016,19,23.99,-104.67,68.0,10.0
Tarko-Sale,100,RU,1555697760,85,64.92,77.78,21.0,1.99
Silvan,75,TR,1555696200,87,38.14,41.01,50.0,6.93
Visby,0,SE,1555697797,37,57.64,18.3,50.0,2.24
Jutai,100,BR,1555698026,92,-1.71,-47.89,82.68,3.91
Taicheng,29,CN,1555698013,95,22.25,112.8,80.01,3.0
Makhinjauri,90,GE,1555695000,87,41.67,41.69,50.0,4.7
Mandera,38,ET,1555698027,44,3.94,41.86,91.14,8.81
Manta,10,RO,1555698027,58,45.1,24.1,48.66,4.16
George Town,75,MY,1555695000,79,5.42,100.33,87.8,3.36
Kirakira,100,SB,1555698027,82,-10.46,161.92,79.98,4.18
Santa Cruz,1,US,1555698024,72,36.97,-122.03,78.01,3.36
College,90,US,1555698005,86,64.86,-147.8,28.99,4.7
Buala,100,SB,1555698030,82,-8.15,159.59,80.88,14.94
Kontagora,84,NG,1555698030,12,10.4,5.47,101.22,3.42
Baghdad,0,IQ,1555695000,63,33.3,44.38,62.6,17.22
Sernur,30,RU,1555698009,75,56.93,49.15,34.8,4.21
Faya,20,SA,1555693200,77,18.39,42.45,69.8,9.17
Port Lincoln,55,AU,1555698031,44,-34.72,135.86,75.3,21.5
Oussouye,0,SN,1555698031,72,12.49,-16.54,74.76,22.79
Bobrovka,0,RU,1555698031,39,52.3,45.54,40.38,4.07
Necochea,0,AR,1555696890,60,-38.55,-58.74,66.0,8.01
Pringsewu,100,ID,1555698031,97,-5.36,104.98,74.04,1.9
Cartagena del Chaira,98,CO,1555698032,66,1.33,-74.84,83.22,5.32
Pangai,75,TO,1555693200,88,-19.8,-174.35,75.2,19.46
Jurm,94,AF,1555698032,47,36.86,70.83,55.68,2.28
Shebunino,0,RU,1555695000,45,57.66,40.04,44.6,4.47
Westport,0,IE,1555697890,72,53.8,-9.52,64.99,8.05
Sola,0,NO,1555698005,38,58.89,5.65,59.0,10.29
The Valley,40,AI,1555697799,58,18.22,-63.06,84.2,18.34
Kuryk,99,KZ,1555698033,46,43.18,51.68,47.94,10.31
Canon City,1,US,1555695300,22,39.46,-117.13,68.0,8.05
Ugoofaaru,100,MV,1555698033,74,5.67,73.0,84.12,7.7
Parry Sound,100,CA,1555697863,99,45.34,-80.04,39.99,14.61
Saint George,20,GR,1555697599,76,39.45,22.34,61.0,4.0
Ligayan,27,PH,1555698034,74,4.65,119.47,84.48,9.53
Chicama,0,PE,1555693200,78,-7.84,-79.15,73.4,12.75
Seoul,1,KR,1555696200,93,37.57,126.98,53.6,1.12
Rundu,23,NA,1555693200,23,-17.91,19.77,84.2,2.24
Masallatah,99,LY,1555697828,55,32.62,14.0,63.6,21.03
Lisala,100,CD,1555698034,73,2.15,21.52,79.44,2.3
Sundargarh,36,IN,1555698035,53,22.12,84.04,81.78,13.04
Barreirinha,84,BR,1555698035,88,-2.8,-57.07,84.12,3.8
Sernovodsk,7,RU,1555698035,51,53.92,51.26,37.5,3.85
Gat,0,SN,1555696800,53,14.69,-16.54,77.0,18.34
Talakan,7,RU,1555698035,60,50.29,130.28,23.82,3.71
Shenkursk,100,RU,1555698035,95,62.11,42.91,38.4,3.44
Princeton,90,US,1555697823,57,41.37,-89.46,57.99,24.16
Oslo,95,NO,1555698022,52,59.91,10.74,61.0,6.93
Rapid Valley,1,US,1555697795,30,44.06,-103.15,73.0,9.17
Kamaishi,0,JP,1555698036,80,39.28,141.86,27.96,3.53
Pasni,0,PK,1555698036,55,25.26,63.48,80.7,5.26
Verkhnyaya Inta,100,RU,1555698036,95,65.99,60.32,29.94,4.79
Somerset West,75,ZA,1555697778,93,-34.08,18.85,63.0,5.82
Ferme-Neuve,100,CA,1555698036,84,46.7,-75.45,39.48,9.48
Livingston,90,US,1555697776,71,32.58,-88.19,55.4,18.34
Tekkali,1,IN,1555698037,82,18.62,84.23,80.7,1.77
Pointe Michel,20,DM,1555693200,48,15.25,-61.38,86.0,14.99
Mobaye,100,CF,1555698037,81,4.33,21.18,77.1,7.05
Kajaani,0,FI,1555694400,45,64.22,27.73,44.6,6.93
Bingen,1,DE,1555698007,26,49.97,7.9,73.4,3.36
Wencheng,75,CN,1555698038,98,27.79,120.09,61.08,2.8
Sorochinsk,0,RU,1555698038,39,52.43,53.15,37.32,5.46
Santa Fe,99,AR,1555697991,59,-31.62,-60.7,88.0,4.0
Vazante,24,BR,1555698038,62,-17.99,-46.9,82.68,1.23
Marquette,5,US,1555697721,26,46.54,-87.4,53.01,16.11
Kawalu,100,ID,1555698039,96,-7.38,108.21,71.16,2.15
Rio Grande,20,BR,1555693200,42,-32.03,-52.1,80.6,6.93
Yerbogachen,57,RU,1555698039,91,61.28,108.01,16.44,1.41
Bella Union,100,CO,1555698039,75,8.5,-73.35,78.72,1.79
Manokwari,100,ID,1555697795,88,-0.87,134.08,73.5,1.5
Alice Springs,6,AU,1555695000,42,-23.7,133.88,66.2,5.82
Ketchikan,90,US,1555692960,81,55.34,-131.65,44.6,5.82
Chapleau,40,CA,1555696800,45,47.85,-83.4,44.6,12.75
Alakurtti,26,RU,1555697614,61,66.96,30.34,35.01,1.86
Zaraza,99,VE,1555698040,33,9.35,-65.33,94.74,8.21
Kongolo,57,CD,1555698040,65,-5.39,27.0,78.54,3.15
Svetlogorsk,22,RU,1555695000,50,53.14,59.15,28.4,6.71
Ampanihy,14,MG,1555698040,75,-24.69,44.75,71.16,13.71
Broome,0,GB,1555698037,62,52.47,1.45,69.8,8.05
Namatanai,97,PG,1555698041,89,-3.66,152.44,76.56,3.65
Lukulu,91,ZM,1555698041,65,-14.38,23.24,75.48,5.39
Chernyshevskiy,100,RU,1555698041,89,63.01,112.47,18.24,3.09
Matane,75,CA,1555697902,65,48.83,-67.52,48.0,8.05
Mackenzie,75,CA,1555696800,45,55.34,-123.09,44.6,6.93
Bereda,20,ES,1555698007,63,43.27,-7.54,64.4,6.93
Chimore,92,BO,1555698041,54,-16.98,-65.13,87.36,2.98
Huarmey,91,PE,1555698042,87,-10.07,-78.15,70.08,12.37
Jacareacanga,86,BR,1555698042,57,-6.22,-57.76,90.42,3.09
Wajid,28,SO,1555698042,39,3.81,43.25,92.4,5.1
Huangnihe,25,CN,1555698042,34,43.56,128.02,33.9,4.25
Sabzevar,17,IR,1555698042,63,36.21,57.68,59.1,5.3
Vestmannaeyjar,90,IS,1555693200,100,63.44,-20.27,46.4,26.4
Verkhniy Rohachyk,95,UA,1555698044,56,47.25,34.34,45.42,9.75
Conceicao do Araguaia,96,BR,1555698044,56,-8.26,-49.26,91.14,2.48
Waingapu,0,ID,1555698044,90,-9.65,120.26,74.04,7.38
Kingston,90,CA,1555697788,100,44.23,-76.48,57.2,14.99
Agropoli,27,IT,1555697868,46,40.35,15.0,64.0,1.01
Tufanganj,32,IN,1555698045,28,26.23,89.7,79.26,6.55
Galiakot,0,IN,1555698046,20,23.54,74.01,88.98,1.83
Margherita,1,IN,1555698046,86,27.29,95.67,69.18,1.54
Hami,0,CN,1555698046,18,42.84,93.51,65.76,9.1
Suluova,75,TR,1555696200,83,40.83,35.65,41.0,16.11
Zurrieq,40,MT,1555698046,77,35.83,14.47,60.8,10.29
Menomonie,1,US,1555698024,20,44.88,-91.92,61.0,8.05
Kilindoni,36,TZ,1555698046,79,-7.91,39.67,84.12,13.2
Gigmoto,4,PH,1555698046,75,13.78,124.39,81.06,7.85
Coos Bay,90,US,1555697783,93,43.37,-124.22,55.99,6.93
Fairview,75,US,1555698044,50,40.81,-74.0,79.0,10.29
Geaca,0,RO,1555696800,24,46.85,24.09,57.2,8.05
Fayetteville,75,US,1555697926,47,36.06,-94.16,60.01,23.04
Izumo,20,JP,1555693200,87,35.37,132.75,44.6,2.24
Aykhal,90,RU,1555693200,41,65.95,111.51,21.2,8.95
Imeni Poliny Osipenko,4,RU,1555698050,81,52.42,136.49,23.28,4.99
Jesup,90,US,1555698048,88,31.61,-81.89,71.6,16.11
Hit,36,IQ,1555698050,27,33.64,42.83,68.82,6.2
Cap Malheureux,40,MU,1555697942,83,-19.98,57.61,78.8,5.82
Linhares,4,BR,1555698050,55,-19.38,-40.06,88.08,3.24
Herbrechtingen,0,DE,1555698006,65,48.62,10.18,69.01,6.93
Khandyga,0,RU,1555698050,78,62.65,135.58,9.6,6.08
Culebra,1,US,1555698036,24,34.68,-105.77,66.99,3.36
Alpena,20,US,1555698040,65,45.06,-83.43,48.0,16.11
Sokolo,0,ML,1555698051,5,14.74,-6.12,106.62,5.39
Alghero,0,IT,1555698009,42,40.56,8.32,68.0,11.41
Daugai,0,LT,1555697755,24,54.36,24.35,59.0,5.82
Warri,71,NG,1555697886,73,5.52,5.75,84.66,10.22
Xinqing,0,CN,1555698052,51,48.28,129.53,25.44,3.15
Waipawa,1,NZ,1555697716,94,-39.94,176.59,37.99,3.71
Port Hedland,55,AU,1555695000,88,-20.31,118.58,78.8,8.05
Patnagarh,63,IN,1555698052,56,20.71,83.13,83.04,8.08
Burns Lake,67,CA,1555698052,59,54.23,-125.76,38.94,6.73
Nemuro,90,JP,1555698052,73,43.32,145.57,35.16,8.08
Hazorasp,0,UZ,1555695000,66,41.32,61.08,48.2,11.41
Alofi,88,NU,1555698053,80,-19.06,-169.92,79.26,24.87
Senador Jose Porfirio,98,BR,1555698053,70,-2.59,-51.95,86.46,2.73
Nizwa,0,OM,1555698053,19,22.93,57.53,82.5,5.06
Guderup,0,DK,1555698004,44,54.99,9.87,59.0,4.7
Liwale,67,TZ,1555698053,88,-9.8,37.92,71.88,5.03
Vomp,20,AT,1555697833,34,47.34,11.68,66.2,3.36
Yatou,93,CM,1555698054,76,3.63,9.81,85.38,12.08
La Rioja,58,AR,1555698054,61,-29.41,-66.86,73.5,8.25
Mitsamiouli,20,KM,1555693200,79,-11.38,43.28,84.2,11.41
Olinda,75,EC,1555698024,78,-2.03,-79.75,84.99,4.7
Cabra,75,ES,1555697636,72,37.47,-4.43,63.0,4.7
Kingsville,90,US,1555697939,88,39.45,-76.42,73.99,12.75
Kati,0,ML,1555696800,16,12.75,-8.07,104.0,2.24
Juba,94,EE,1555697416,28,57.82,26.93,57.2,8.05
Pierre,75,US,1555697799,29,44.37,-100.35,63.0,11.41
Udachnyy,90,RU,1555693200,41,66.42,112.4,21.2,8.95
Roald,0,NO,1555697820,50,62.58,6.12,60.8,9.17
Viedma,0,AR,1555698055,42,-40.81,-62.99,67.56,14.72
Baghmara,42,IN,1555698055,47,23.8,86.21,80.52,5.55
Balkhash,44,KZ,1555698056,66,46.84,74.98,51.0,5.57
Nosy Varika,25,MG,1555698056,95,-20.58,48.53,74.76,3.13
Akdepe,90,TM,1555695000,60,42.05,59.39,48.2,11.41
Cuamba,12,MZ,1555698056,81,-14.8,36.54,71.16,8.28
Sainte-Marie,40,CA,1555697772,100,46.45,-71.03,48.0,2.24
Eresos,0,GR,1555696200,50,39.17,25.93,55.4,6.98
North Bend,90,US,1555698028,93,43.41,-124.22,55.99,6.93
Dera Bugti,0,PK,1555698058,32,29.03,69.15,78.54,1.23
Muravlenko,98,RU,1555698058,95,63.79,74.5,21.3,13.15
Mahon,75,IE,1555697556,77,51.89,-8.4,59.0,6.93
Hede,92,SE,1555697793,29,60.45,15.49,62.6,1.12
Chara,20,GR,1555697599,76,39.42,22.43,61.0,4.0
Tiszafured,0,HU,1555695900,20,47.62,20.77,62.6,10.29
Palomares,40,ES,1555697922,71,40.39,-5.74,53.6,19.46
Lamar,1,US,1555697798,25,38.09,-102.62,64.4,6.93
Moron,95,VE,1555698059,57,10.49,-68.2,87.9,7.09
Shingu,0,JP,1555698059,84,33.72,135.99,42.36,4.92
Davila,0,PH,1555698059,80,18.47,120.58,81.78,2.01
Velyka Lepetykha,100,UA,1555698059,51,47.18,33.94,46.32,7.63
Jining,29,CN,1555698059,38,35.41,116.58,51.0,3.11
Sembakung,91,ID,1555698060,99,3.82,117.25,73.86,1.95
Dalbandin,0,PK,1555698060,17,28.9,64.41,81.24,3.22
Ambilobe,83,MG,1555698060,90,-13.19,49.05,75.12,7.34
Kanigoro,69,ID,1555698060,94,-8.13,112.22,75.3,2.71
Sept-Iles,75,CA,1555697901,86,50.2,-66.38,42.01,8.05
Moundsville,90,US,1555697988,77,39.92,-80.74,66.99,10.29
Shimoda,48,JP,1555698031,85,34.7,138.93,61.0,7.63
Bambanglipuro,100,ID,1555698061,80,-7.95,110.28,83.4,14.92
Mahajanga,20,MG,1555696800,88,-15.72,46.32,80.6,4.05
Nantucket,90,US,1555697859,77,41.28,-70.1,72.0,18.34
