City,Cloudiness,Country,Date,Humidity,Lat,Lng,Max Temp,Wind Speed
Leningradskiy,51,RU,1562607752,64,69.38,178.42,51.22,8.03
Bredasdorp,50,ZA,1562607763,59,-34.53,20.04,66.2,12.75
Puerto Ayora,40,EC,1562607788,61,-0.74,-90.35,80.6,18.34
Ayan,100,IR,1562607817,60,38.23,44.7,58.24,2.86
Saint George,20,GR,1562607566,26,39.45,22.34,95.0,12.75
Rensvik,75,NO,1562607912,76,63.1,7.82,57.2,11.41
Ushuaia,0,AR,1562607742,65,-54.81,-68.31,46.4,4.7
Hilo,90,US,1562607711,83,19.71,-155.08,78.8,4.7
Luderitz,0,NA,1562607746,67,-26.65,15.16,62.6,16.11
La Ronge,90,CA,1562607757,72,55.1,-105.3,59.0,9.17
Gizo,0,IL,1562607794,78,31.8,34.94,82.99,8.05
Lubao,21,CD,1562607913,27,-5.39,25.75,78.58,4.0
Hermanus,83,ZA,1562607746,72,-34.42,19.24,63.0,7.0
Yeppoon,90,AU,1562607776,82,-23.13,150.74,64.4,3.36
Rikitea,100,PF,1562607745,93,-23.12,-134.97,71.2,18.12
Torbay,20,CA,1562607809,35,47.66,-52.73,73.99,17.22
Pevek,37,RU,1562607749,69,69.7,170.27,44.2,2.3
Finnsnes,0,NO,1562607913,24,69.23,17.98,71.6,13.87
Padang,100,ID,1562607795,81,-0.92,100.36,80.38,16.75
Hobart,20,AU,1562607762,75,-42.88,147.33,45.0,8.05
Butaritari,100,KI,1562607752,73,3.07,172.79,82.0,5.1
Poim,100,RU,1562607914,97,53.03,43.19,60.04,6.82
Avarua,33,CK,1562607675,88,-21.21,-159.78,71.6,4.7
Bluff,16,AU,1562607753,91,-23.58,149.07,55.0,1.7
Geraldton,90,CA,1562607788,47,49.72,-86.95,77.0,4.7
Najran,40,SA,1562607914,13,17.54,44.22,96.8,5.82
Mazagao,40,BR,1562607914,55,-0.12,-51.29,91.4,8.05
Albany,20,US,1562607472,34,42.65,-73.75,84.0,6.93
Dikson,100,RU,1562607752,97,73.51,80.55,32.32,16.55
Cherskiy,75,RU,1562607495,52,68.75,161.3,64.72,7.61
Mataura,100,NZ,1562607454,89,-46.19,168.86,46.0,11.99
Severo-Kurilsk,100,RU,1562607743,98,50.68,156.12,41.86,13.13
Ancud,90,CL,1562607494,93,-41.87,-73.83,50.0,14.99
Impfondo,78,CD,1562607914,81,1.62,18.06,73.9,3.2
Olyka,66,UA,1562607914,55,50.73,25.81,64.0,11.36
Coihaique,90,CL,1562607767,93,-45.58,-72.07,46.4,4.7
Lembeni,15,TZ,1562607915,64,-3.78,37.62,71.56,12.88
Charters Towers,69,AU,1562607684,88,-20.07,146.27,61.3,7.92
Ilulissat,20,GL,1562607546,35,69.22,-51.1,57.2,4.7
Lompoc,90,US,1562607766,82,34.64,-120.46,68.0,6.93
Punta Arenas,90,CL,1562607742,93,-53.16,-70.91,41.0,6.93
Manggar,31,ID,1562607915,84,-2.88,108.27,76.24,4.79
Moroto,66,UG,1562607915,66,2.53,34.66,74.62,2.26
Clyde River,20,CA,1562607785,76,70.47,-68.59,53.6,8.05
Mahebourg,75,MU,1562607586,88,-20.41,57.7,72.0,3.36
Port Hedland,0,AU,1562607768,72,-20.31,118.58,59.0,8.05
Carnarvon,0,ZA,1562607753,60,-30.97,22.13,53.38,7.11
Castro,90,CL,1562607756,93,-42.48,-73.76,50.0,14.99
Westport,1,US,1562607915,69,41.14,-73.36,79.0,6.93
Anzhero-Sudzhensk,0,RU,1562607915,82,56.08,86.02,59.0,4.47
Kapaa,90,US,1562607467,78,22.08,-159.32,80.6,16.11
Aswan,0,EG,1562607813,12,24.09,32.9,91.36,10.22
Tasiilaq,5,GL,1562607747,75,65.61,-37.64,42.8,18.34
Busselton,61,AU,1562607475,72,-33.64,115.35,52.0,15.39
Yellowknife,75,CA,1562607749,66,62.45,-114.38,50.0,12.75
Juba,90,EE,1562607824,72,57.82,26.93,61.0,8.05
Chuy,27,UY,1562607742,58,-33.69,-53.46,54.82,4.47
Boca do Acre,0,BR,1562607916,37,-8.76,-67.39,90.64,1.74
Yermakovskoye,24,RU,1562607916,91,53.28,92.4,61.48,3.51
Thompson,90,CA,1562607750,88,55.74,-97.86,64.4,4.7
Mar del Plata,48,AR,1562607749,60,-46.43,-67.52,49.6,11.03
West Bay,40,CA,1562607916,82,49.34,-123.21,69.01,9.17
Laguna,52,BZ,1562607916,53,16.17,-88.94,90.82,7.25
Sao Filipe,79,CV,1562607767,79,14.9,-24.5,72.82,13.87
Vestmannaeyjar,40,IS,1562607731,87,63.44,-20.27,51.8,26.4
Sulangan,100,PH,1562607917,75,11.14,123.72,82.72,8.68
Tiksi,83,RU,1562607456,84,71.64,128.87,52.84,5.61
Marawi,77,PH,1562607917,92,8.0,124.29,75.0,5.99
Rafraf,0,TN,1562607812,20,37.19,10.18,95.0,5.82
Ribeira Grande,20,PT,1562607571,73,38.52,-28.7,73.4,14.99
Hithadhoo,34,MV,1562607753,78,-0.6,73.08,84.52,14.18
Nikolskoye,75,RU,1562607771,67,59.7,30.79,62.01,8.95
Barrow,100,AR,1562607743,59,-38.31,-60.23,52.48,13.35
Kaitangata,100,NZ,1562607725,66,-46.28,169.85,46.99,15.01
Saint-Augustin,75,CA,1562607773,50,45.63,-73.98,84.0,4.7
Nishihara,90,JP,1562607789,77,35.74,139.53,68.0,4.7
Saint Anthony,75,US,1562607576,48,43.97,-111.68,70.0,6.17
Cape Town,75,ZA,1562607606,87,-33.93,18.42,63.0,11.41
Cockburn Town,2,TC,1562607747,76,21.46,-71.14,82.18,16.64
Carbonia,20,IT,1562607917,39,39.17,8.53,96.8,8.05
Jamestown,0,AU,1562607623,87,-33.21,138.6,44.56,4.43
Abalak,60,NE,1562607917,38,15.46,6.28,94.6,14.25
Ayagoz,31,KZ,1562607918,56,47.96,80.43,66.34,10.51
Vaini,94,IN,1562607743,85,15.34,74.49,78.94,11.88
Ambulu,37,ID,1562607918,80,-8.35,113.61,74.26,8.34
Umm Lajj,0,SA,1562607800,73,25.02,37.27,84.52,3.15
Tochio,98,JP,1562607918,89,37.47,139.0,69.01,4.65
Skelleftea,0,SE,1562607903,54,64.75,20.95,59.0,5.82
Beloyarskiy,100,RU,1562607918,68,63.71,66.67,50.86,4.83
New Norfolk,20,AU,1562607479,75,-42.78,147.06,46.0,8.05
Broome,0,GB,1562607918,51,52.47,1.45,66.0,8.05
Ponta do Sol,0,BR,1562607746,49,-20.63,-46.0,67.42,5.82
Nicoya,75,CR,1562607738,88,10.15,-85.45,78.8,4.7
Bambous Virieux,75,MU,1562607747,88,-20.34,57.76,72.0,3.36
Georgetown,40,GY,1562607448,70,6.8,-58.16,89.6,11.41
Lorengau,96,PG,1562607773,80,-2.02,147.27,80.38,10.56
Kununurra,0,AU,1562607812,77,-15.77,128.74,59.0,1.12
Atuona,0,PF,1562607742,67,-9.8,-139.03,80.2,11.01
Coracora,0,PE,1562607919,28,-15.02,-73.78,61.48,10.76
Richards Bay,0,ZA,1562607787,77,-28.77,32.06,69.58,11.97
Narsaq,75,GL,1562607793,20,60.91,-46.05,64.4,25.28
Cidreira,18,BR,1562607451,50,-30.17,-50.22,60.76,1.21
Luangwa,24,MZ,1562607919,27,-15.62,30.4,63.28,1.97
Tamandare,11,BR,1562607919,42,-8.28,-70.75,85.96,2.42
Souillac,0,FR,1562607750,33,45.6,-0.6,88.0,12.75
Mnogovershinnyy,98,RU,1562607919,94,53.94,139.92,44.02,3.62
Derzhavinsk,3,KZ,1562607830,58,51.1,66.31,66.34,9.19
Haines Junction,97,CA,1562607771,41,60.75,-137.51,65.98,2.62
Baykit,33,RU,1562607920,90,61.68,96.39,51.4,5.32
Juneau,75,US,1562607910,77,58.3,-134.42,62.6,9.17
Twentynine Palms,1,US,1562607920,16,34.14,-116.05,91.0,4.7
San Buenaventura,75,MX,1562607920,27,27.06,-101.55,91.4,11.41
Port Blair,57,IN,1562607815,79,11.67,92.75,83.8,14.72
Okhotsk,19,RU,1562607785,91,59.36,143.24,43.12,2.17
Presidencia Roque Saenz Pena,0,AR,1562607920,38,-26.79,-60.44,67.24,7.65
Dolores,11,UY,1562607920,46,-33.53,-58.22,60.01,4.0
Jaciara,0,BR,1562607920,30,-15.95,-54.98,84.88,2.77
Marsabit,31,KE,1562607744,33,2.34,37.99,85.42,11.34
Yumen,32,CN,1562607921,36,40.29,97.04,70.48,8.79
Erzin,0,TR,1562607921,43,36.95,36.2,87.8,18.34
Namatanai,100,PG,1562607827,83,-3.66,152.44,78.76,16.31
Yishui,99,CN,1562607921,82,35.78,118.63,68.32,1.05
Airai,38,TL,1562607748,87,-8.93,125.41,67.24,4.32
Kibaya,75,RW,1562607921,56,-2.2,30.56,70.3,1.28
Provideniya,64,RU,1562607775,30,64.42,-173.23,66.34,5.64
Guerrero Negro,48,MX,1562607748,88,27.97,-114.04,64.54,10.11
Esperance,0,AU,1562607760,87,-33.86,121.89,46.4,8.05
Lebu,84,ET,1562607747,76,8.96,38.73,59.86,2.53
Salalah,75,OM,1562607811,84,17.01,54.1,86.0,6.93
Wanning,20,AT,1562607780,63,48.64,13.53,66.2,12.75
East London,0,ZA,1562607770,63,-33.02,27.91,60.8,8.05
Laranjeiras do Sul,0,BR,1562607768,54,-25.41,-52.42,63.64,4.94
Ulaanbaatar,0,MN,1562607814,62,47.92,106.92,53.6,2.24
Sinnamary,65,GF,1562607922,79,5.38,-52.96,81.28,11.1
Patnanungan,100,PH,1562607922,84,14.78,122.18,79.84,4.23
Mahina,100,ML,1562607758,56,13.76,-10.85,85.78,7.05
Moses Lake,90,US,1562607922,52,47.13,-119.28,72.0,4.7
Pathein,75,MM,1562607922,88,16.78,94.73,79.84,8.25
Port Huron,1,US,1562607922,38,42.98,-82.44,81.0,6.93
Zonguldak,17,TR,1562607923,74,41.25,31.83,77.68,8.03
Pangody,85,RU,1562607923,65,65.85,74.49,51.4,14.2
Yarmouth,75,CA,1562607757,49,43.84,-66.12,72.0,12.75
Komsomolskiy,76,RU,1562607793,68,67.55,63.78,47.8,11.12
Port Lincoln,0,AU,1562607828,78,-34.72,135.86,58.96,12.71
Touros,40,BR,1562607816,66,-5.2,-35.46,84.2,14.99
Belmonte,16,PT,1562607923,65,40.36,-7.35,73.0,4.0
Pangnirtung,90,CA,1562607780,100,66.15,-65.72,44.6,12.75
Nanortalik,100,GL,1562607754,45,60.14,-45.24,52.12,10.69
Provost,100,CA,1562607924,93,52.35,-110.26,56.98,6.62
Valparaiso,1,US,1562607924,14,41.47,-87.06,82.4,6.49
Raton,1,US,1562607924,44,36.9,-104.44,82.0,6.93
Bethel,1,US,1562607764,93,60.79,-161.76,69.8,4.7
Yantal,88,RU,1562607924,94,56.85,105.25,58.24,1.36
Tomatlan,6,MX,1562607924,63,19.93,-105.25,85.78,8.52
Vila Franca do Campo,75,PT,1562607786,94,37.72,-25.43,69.8,13.87
Port Elizabeth,90,US,1562607682,83,39.31,-74.98,73.99,11.41
Port Alfred,74,ZA,1562607743,71,-33.59,26.89,64.0,5.01
Noumea,90,NC,1562607618,77,-22.28,166.46,59.0,2.24
Marienburg,75,DE,1562607924,58,52.12,9.98,61.0,4.7
Zhezkazgan,0,KZ,1562607924,23,47.8,67.71,78.04,5.91
Mawlaik,100,MM,1562607925,93,23.63,94.42,73.72,2.57
Bambanglipuro,13,ID,1562607925,82,-7.95,110.28,75.7,17.72
Shaowu,100,CN,1562607925,99,27.34,117.49,71.92,2.66
Pisco,20,PE,1562607750,30,-13.71,-76.2,71.6,10.29
Puerto Ayacucho,40,CO,1562607925,78,5.66,-67.63,80.6,9.73
Mtwara,31,TZ,1562607925,94,-10.28,40.18,69.4,6.73
Qaanaaq,100,GL,1562607768,92,77.48,-69.36,38.44,3.78
Vasai,24,IN,1562607925,80,22.43,69.93,83.44,20.33
Beyla,96,GN,1562607814,82,8.69,-8.65,77.0,5.14
Pimentel,17,BR,1562607802,89,-3.7,-45.5,81.82,3.15
San Patricio,0,PY,1562607779,57,-26.98,-56.83,63.28,6.17
Zhigansk,9,RU,1562607926,87,66.77,123.37,60.4,8.1
Gwadar,0,PK,1562607858,82,25.12,62.33,84.52,8.3
Iqaluit,75,CA,1562607604,81,63.75,-68.52,50.0,3.36
Nauta,13,PE,1562607769,49,-4.51,-73.58,85.6,2.75
Clarence Town,0,AU,1562607926,93,-32.59,151.78,54.0,12.75
Vila Velha,20,BR,1562607926,51,-3.71,-38.6,86.0,21.92
Ambilobe,7,MG,1562607795,82,-13.19,49.05,74.08,4.38
Sechura,23,PE,1562607926,88,-5.56,-80.82,64.0,12.71
Codrington,90,AU,1562607742,100,-28.95,153.24,53.6,8.05
Evensk,82,RU,1562607927,66,61.92,159.24,55.18,7.58
Adrar,0,DZ,1562607805,5,27.87,-0.29,114.8,9.17
Acapulco,5,MX,1562607927,74,16.86,-99.88,86.0,5.82
Krasnyy Chikoy,0,RU,1562607927,65,50.36,108.75,53.38,1.1
Biak,87,ID,1562607808,98,-0.91,122.88,63.28,4.09
Praia da Vitoria,40,PT,1562607927,73,38.73,-27.07,75.2,6.29
Simplicio Mendes,69,BR,1562607927,53,-7.85,-41.91,80.38,16.24
Lavrentiya,30,RU,1562607573,34,65.58,-170.99,67.06,2.53
Naze,75,NG,1562607755,69,5.43,7.07,78.8,5.82
Mudanya,0,TR,1562607927,45,40.38,28.88,84.2,9.17
Aksu,0,KZ,1562607834,93,52.04,76.93,59.0,6.71
Sioux Lookout,90,CA,1562607484,54,50.1,-91.92,80.6,12.75
Macapa,40,BR,1562607928,55,0.05,-51.07,91.4,8.05
Grand-Lahou,100,CI,1562607928,88,5.24,-5.0,74.26,5.59
Alta Floresta,0,BR,1562607812,28,-9.87,-56.08,93.2,6.93
Hede,58,SE,1562607928,82,60.45,15.49,57.99,11.41
Minsk,0,BY,1562607704,55,53.9,27.56,62.6,6.71
Anadyr,0,RU,1562607772,82,64.73,177.51,55.4,2.24
Ranapur,99,IN,1562607928,83,22.65,74.53,78.94,15.23
Oksfjord,0,NO,1562607928,51,70.24,22.35,66.2,11.41
Kodiak,40,US,1562607745,28,39.95,-94.76,87.01,3.36
Necochea,100,AR,1562607821,76,-38.55,-58.74,53.01,5.99
Zaraza,22,VE,1562607929,62,9.35,-65.33,88.12,6.11
Chokurdakh,0,RU,1562607748,65,70.62,147.9,58.24,8.21
Lensk,3,RU,1562607929,84,60.71,114.91,58.24,2.55
Namibe,0,AO,1562607791,85,-15.19,12.15,68.5,4.0
Beloha,0,MG,1562607821,87,-25.17,45.06,64.18,4.76
Faanui,34,PF,1562607774,82,-16.48,-151.75,79.12,16.73
Kangaatsiaq,99,GL,1562607830,65,68.31,-53.46,46.36,13.11
Morondava,40,MG,1562607929,72,-20.3,44.28,75.16,20.78
Saskylakh,73,RU,1562607749,95,71.97,114.09,48.88,6.6
Hualmay,51,PE,1562607762,86,-11.1,-77.61,62.74,13.42
Klaksvik,20,FO,1562607801,76,62.23,-6.59,53.6,6.93
Bologoye,11,RU,1562607930,90,57.88,34.11,54.1,3.15
Caravelas,33,BR,1562607828,73,-17.73,-39.27,70.84,12.93
Lodja,85,CD,1562607931,48,-3.52,23.6,79.3,1.12
Coquimbo,75,CL,1562607612,67,-29.95,-71.34,66.0,4.7
Mercedes,11,UY,1562607787,46,-33.25,-58.03,60.01,4.0
Kut Chap,100,TH,1562607931,87,17.43,102.57,76.96,6.31
Nome,40,US,1562607751,63,30.04,-94.42,91.99,4.99
Mgandu,95,TZ,1562607931,49,-5.96,34.11,71.56,8.14
Temba,0,ZA,1562607931,42,-25.38,28.26,57.99,3.0
Arraial do Cabo,40,BR,1562607765,53,-22.97,-42.02,71.6,6.93
Biltine,99,TD,1562607931,60,14.53,20.93,83.44,22.19
Lata,100,IN,1562607932,98,30.78,78.62,48.52,4.5
Cayenne,54,GF,1562607563,74,4.94,-52.33,84.2,10.29
Denpasar,20,ID,1562607932,88,-8.65,115.22,75.2,4.7
Malinovoye Ozero,17,RU,1562607932,46,51.68,79.77,62.38,4.16
Bilma,80,NE,1562607932,20,18.69,12.92,98.02,2.75
Daru,99,PG,1562607766,93,-9.07,143.21,74.08,6.51
Longyearbyen,0,NO,1562607750,76,78.22,15.63,51.8,2.24
Khatanga,77,RU,1562607771,94,71.98,102.47,43.3,3.65
Kepno,63,PL,1562607933,5,51.28,17.99,64.99,6.55
Blagoyevo,55,RU,1562607933,62,63.37,47.92,58.06,4.45
Tabas,0,IR,1562607933,11,33.6,56.92,104.0,4.7
Cam Ranh,40,VN,1562607933,74,11.92,109.15,84.2,14.99
Chapais,75,CA,1562607788,38,49.78,-74.86,73.4,14.99
Gombong,45,ID,1562607933,83,-7.19,109.31,72.1,8.93
Dobryanka,40,RU,1562607933,93,58.45,56.42,53.6,4.47
Cabo San Lucas,75,MX,1562607678,26,22.89,-109.91,95.0,6.93
Coyah,40,GN,1562607934,74,9.71,-13.39,84.2,9.17
Poronaysk,90,RU,1562607934,92,49.22,143.1,50.14,8.14
Yamada,75,JP,1562607934,88,36.58,137.08,73.0,4.7
Talnakh,0,RU,1562607756,76,69.49,88.39,50.0,26.84
Tagusao,11,PH,1562607934,76,9.19,117.81,80.2,4.32
Manicore,54,BR,1562607934,40,-5.81,-61.3,90.1,3.78
Ambovombe,1,MG,1562607934,77,-25.18,46.09,70.84,14.23
Abu Dhabi,0,AE,1562607935,56,24.47,54.37,95.0,6.93
Sao Joao da Barra,75,BR,1562607803,47,-21.64,-41.05,75.2,2.24
Horsham,1,AU,1562607779,93,-36.71,142.2,39.34,2.04
Cascais,75,PT,1562607935,77,38.7,-9.42,73.4,12.75
San Luis,100,AR,1562607935,35,-33.3,-66.34,61.84,10.92
Araouane,32,ML,1562607780,11,18.9,-3.53,108.64,6.42
Saint-Philippe,1,CA,1562607779,44,45.36,-73.48,84.0,11.41
Auki,70,NG,1562607935,65,12.18,6.51,82.18,9.33
Puro,83,PH,1562607935,87,13.13,123.76,78.58,4.07
Srbobran,6,RS,1562607935,75,45.55,19.79,66.16,10.22
Aldan,45,RU,1562607936,91,58.61,125.39,60.94,1.7
Chatham,1,CA,1562607936,47,42.41,-82.19,81.0,11.41
Hasaki,75,JP,1562607772,88,35.73,140.83,64.4,10.29
Victoria,75,BN,1562607763,94,5.28,115.24,77.0,1.12
Sunrise Manor,1,US,1562607936,15,36.21,-115.07,93.99,8.05
Hay River,75,CA,1562607783,75,60.82,-115.79,46.4,13.87
Mayumba,70,GA,1562607936,84,-3.44,10.65,72.82,5.93
Husavik,97,CA,1562607936,51,50.56,-96.99,80.01,5.99
Dicabisagan,100,PH,1562607936,92,17.08,122.42,75.52,2.75
Le Moule,75,GP,1562607937,62,16.33,-61.35,87.8,18.34
Kostino,0,BG,1562607937,45,41.7,25.3,82.4,4.7
Los Llanos de Aridane,20,ES,1562607820,65,28.66,-17.92,77.0,13.87
Kavaratti,100,IN,1562607743,80,10.57,72.64,83.44,15.59
Bilibino,89,RU,1562607758,48,68.06,166.44,59.68,1.9
Sarangani,10,PH,1562607937,69,5.4,125.46,82.54,0.49
Noshiro,88,JP,1562607937,74,40.21,140.05,60.94,3.89
Belawan,0,ID,1562607937,84,-0.59,114.46,68.5,1.52
La Rioja,32,AR,1562607826,46,-29.41,-66.86,54.46,5.37
Bereda,40,ES,1562607938,82,43.27,-7.54,66.2,10.29
Atar,12,MR,1562607785,6,20.52,-13.05,110.26,12.08
Kalmunai,100,LK,1562607797,75,7.42,81.82,80.38,0.63
Barabai,6,ID,1562607938,98,-2.59,115.38,69.4,1.66
Douentza,47,ML,1562607938,45,15.01,-2.95,85.24,6.4
Tommot,17,RU,1562607938,85,58.97,126.27,61.48,2.82
Bantou,100,CN,1562607938,97,26.22,117.49,71.38,1.81
Shingu,100,JP,1562607631,98,33.72,135.99,63.46,4.03
Wanaka,11,NZ,1562607938,81,-44.7,169.14,34.0,1.01
Paragominas,10,BR,1562607782,62,-3.0,-47.35,87.04,4.23
Darnah,0,LY,1562607939,83,32.77,22.64,78.76,19.86
Yulara,0,AU,1562607800,56,-25.24,130.99,44.6,4.7
Almaty,75,KZ,1562607939,46,43.24,76.95,73.4,6.71
Willowmore,76,ZA,1562607939,77,-33.3,23.49,52.84,5.12
Mackay,90,CA,1562607783,93,53.65,-115.58,57.2,6.93
Magadan,0,RU,1562607939,88,59.56,150.8,47.62,1.57
Poum,40,MK,1562607759,48,41.28,20.71,82.4,4.7
Bara,100,NG,1562607939,68,10.41,10.6,79.48,7.63
Horizontina,0,BR,1562607939,53,-27.63,-54.31,64.72,4.07
San Alberto,0,PY,1562607940,37,-24.98,-54.91,68.0,11.41
Providencia,40,CO,1562607828,64,1.24,-77.6,69.8,5.82
Casablanca,40,MA,1562607661,60,33.6,-7.62,77.0,11.41
Plettenberg Bay,83,ZA,1562607940,76,-34.05,23.37,58.78,3.69
Faya,0,SA,1562607833,77,18.39,42.45,73.4,8.05
Paamiut,98,GL,1562607814,64,61.99,-49.67,49.24,7.25
Broken Hill,0,AU,1562607806,75,-31.97,141.45,42.8,3.22
Yangambi,6,CD,1562607940,81,0.77,24.47,74.62,2.57
Iskateley,4,RU,1562607940,86,67.68,53.15,38.8,13.98
Marquette,90,US,1562607940,46,46.54,-87.4,77.0,4.9
Inverness,20,GB,1562607920,82,57.48,-4.23,64.0,6.93
Alugan,99,PH,1562607941,93,12.22,125.48,74.98,3.06
Vao,0,EE,1562607771,73,59.1,26.19,59.5,7.94
Tateyama,96,JP,1562607941,91,36.66,137.31,73.0,1.99
Camopi,6,GF,1562607941,46,3.17,-52.33,89.2,3.67
Dongying,96,CN,1562607941,66,37.43,118.67,76.42,2.64
Lyuban,12,BY,1562607941,87,52.8,28.0,56.8,9.24
Vila do Maio,75,CV,1562607941,51,15.13,-23.22,84.2,16.11
Meybod,40,IR,1562607941,11,32.25,54.02,100.4,2.24
Miri,100,NG,1562607942,75,10.31,9.75,75.34,3.0
Tifton,40,US,1562607942,62,31.45,-83.51,93.0,9.17
Hammerfest,0,NO,1562607942,51,70.66,23.68,59.0,11.41
Warmbad,0,DE,1562607942,41,50.67,13.08,63.0,11.41
Lockhart,90,AU,1562607943,100,-35.22,146.72,39.2,2.82
Puquio,0,PE,1562607943,32,-14.69,-74.12,57.7,5.28
Norwich,0,GB,1562607926,51,52.63,1.29,66.0,8.05
Egvekinot,22,RU,1562607943,45,66.32,-179.17,68.68,2.42
Nantucket,1,US,1562607780,56,41.28,-70.1,75.99,6.93
Manzhouli,17,CN,1562607943,86,49.6,117.43,59.14,7.94
Sur,8,OM,1562607767,69,22.57,59.53,83.98,11.14
Omboue,62,GA,1562607943,88,-1.57,9.26,72.28,11.61
Tecpatan,40,MX,1562607944,51,17.13,-93.3,84.2,4.7
Jalu,0,LY,1562607762,19,29.03,21.55,92.26,8.14
Tuy Hoa,43,VN,1562607738,72,13.08,109.3,78.58,6.26
Gunjur,75,GM,1562607944,74,13.18,-16.76,84.2,6.93
Upernavik,100,GL,1562607754,77,72.79,-56.15,41.5,14.45
Hambantota,100,LK,1562607775,83,6.12,81.12,83.08,15.82
Garowe,2,SO,1562607817,37,8.41,48.48,87.58,19.8
Malpe,40,IN,1562607944,88,13.35,74.72,80.6,15.28
Tefe,75,BR,1562607944,74,-3.35,-64.71,78.8,5.82
Dublin,75,IE,1562607732,77,53.35,-6.26,64.0,4.7
Kahului,75,US,1562607584,83,20.89,-156.47,78.8,14.99
Port Hawkesbury,1,CA,1562607944,38,45.62,-61.36,80.01,11.41
Lar,0,IR,1562607945,18,27.66,54.32,100.4,3.15
Puerto Escondido,75,MX,1562607794,58,15.86,-97.07,87.8,5.82
Victoria Point,8,AU,1562607945,93,-27.58,153.3,57.0,4.7
Lagos,20,NG,1562607767,78,6.46,3.39,80.6,8.05
Tulle,0,FR,1562607945,32,45.27,1.77,84.0,3.36
Samarai,66,PG,1562607791,89,-10.62,150.67,71.02,5.01
Planadas,75,CO,1562607945,40,3.2,-75.65,89.6,16.11
Santa Isabel do Rio Negro,69,BR,1562607945,59,-0.41,-65.02,85.06,4.25
Batsfjord,0,NO,1562607946,76,70.63,29.72,50.0,6.93
Bathsheba,40,BB,1562607710,66,13.22,-59.52,87.8,20.8
Hukuntsi,7,BW,1562607946,36,-23.98,21.76,54.46,7.61
Sayyan,81,YE,1562607747,52,15.17,44.32,74.98,3.71
Saint-Joseph,0,FR,1562607806,66,43.56,6.97,89.01,5.82
Moranbah,22,AU,1562607946,96,-22.0,148.04,56.62,10.38
Tuatapere,100,NZ,1562607476,89,-46.13,167.69,46.0,11.99
Udachnyy,0,RU,1562607946,77,66.42,112.4,60.8,4.47
Yaizu,90,JP,1562607946,78,34.83,138.3,72.0,4.7
Nongpoh,90,IN,1562607946,100,25.9,91.88,82.4,2.68
Uvalde,1,US,1562607947,59,29.21,-99.79,97.0,9.17
Flinders,0,AU,1562607517,76,-34.58,150.85,54.0,13.87
Vanino,100,RU,1562607836,81,53.93,40.55,62.01,5.99
Port Macquarie,1,AU,1562607764,100,-31.43,152.91,51.01,5.82
Tiznit,0,MA,1562607947,82,29.7,-9.73,67.6,23.58
Champerico,40,MX,1562607809,51,16.38,-93.6,84.2,4.7
Kruisfontein,100,ZA,1562607755,74,-34.0,24.73,56.98,10.31
Jining,94,CN,1562607947,68,35.41,116.58,71.74,5.95
Ahipara,97,NZ,1562607761,66,-35.17,173.16,56.8,8.93
Benjamin Constant,75,BR,1562607947,65,-4.38,-70.03,78.8,5.82
Guiyang,90,CN,1562607947,93,26.58,106.71,66.2,6.71
Seymchan,6,RU,1562607948,70,62.93,152.39,51.76,2.26
Ilebo,5,CD,1562607948,37,-4.33,20.59,78.58,1.57
Vanavara,27,RU,1562607948,84,60.35,102.28,57.52,2.46
Dapaong,44,TG,1562607948,57,10.86,0.2,87.4,12.37
Novo Aripuana,92,BR,1562607948,79,-5.12,-60.38,82.18,1.68
Methoni,0,GR,1562607948,27,36.82,21.7,89.6,9.17
Giyani,0,ZA,1562607949,56,-23.32,30.73,63.28,2.75
Kavieng,100,PG,1562607751,71,-2.57,150.8,83.26,8.9
Shepsi,0,RU,1562607949,66,44.04,39.15,76.42,10.02
Guerande,0,FR,1562607949,60,48.47,-4.17,73.4,14.99
Tura,39,RU,1562607791,84,64.27,100.22,53.92,10.33
Marsh Harbour,100,BS,1562607652,72,26.54,-77.06,83.8,19.77
Ust-Omchug,16,RU,1562607949,83,61.13,149.63,45.64,4.47
Aksarka,99,RU,1562607756,56,66.56,67.8,53.92,13.69
Oranjemund,35,ZA,1562607790,82,-28.55,16.43,56.26,18.54
Yurimaguas,75,PE,1562607777,69,-5.9,-76.1,75.2,3.36
Ambanja,18,MG,1562607950,69,-13.68,48.45,80.2,5.01
Havelock,40,US,1562607879,79,34.88,-76.9,91.99,8.05
Doctor Juan Leon Mallorquin,0,PY,1562607950,37,-25.4,-55.27,68.0,11.41
Urengoy,100,RU,1562607950,59,65.96,78.37,54.46,14.38
Aloleng,100,PH,1562607950,80,16.13,119.78,83.62,16.15
Viedma,100,AR,1562607950,54,-40.81,-62.99,55.36,7.65
Maragogi,24,BR,1562607768,84,-9.01,-35.22,75.34,7.2
Bani,86,YE,1562607950,69,16.02,42.93,89.38,9.08
Bhalki,100,IN,1562607950,80,18.04,77.21,76.24,15.5
College,75,US,1562607557,52,64.86,-147.8,69.8,7.92
Amapa,40,HN,1562607791,70,15.09,-87.97,86.0,4.7
Fortuna,90,US,1562607727,93,40.6,-124.16,66.0,5.82
Begowala,40,PK,1562607951,70,32.44,74.27,91.4,9.17
Kupang,90,ID,1562607951,73,-10.16,123.6,77.0,9.17
Shagonar,50,RU,1562607951,73,51.54,92.92,61.12,1.99
Chimbote,89,PE,1562607746,91,-9.08,-78.59,62.2,10.56
Tieli,52,CN,1562607951,88,46.98,128.05,67.96,3.96
Beihai,0,CN,1562607951,94,38.95,121.19,77.0,8.95
Darab,33,IR,1562607951,24,28.75,54.55,81.46,14.38
Ust-Kuyga,100,RU,1562607952,89,70.0,135.55,58.06,7.16
Roald,75,NO,1562607817,76,62.58,6.12,57.2,12.75
Sibenik,89,HR,1562607952,93,45.81,17.18,64.36,8.66
Gotsu,15,JP,1562607952,91,35.01,132.22,69.76,10.69
Cancun,75,MX,1562607782,62,21.17,-86.85,89.6,10.29
Jackson,1,US,1562607671,39,43.48,-110.76,71.01,9.86
Bonthe,100,SL,1562607835,89,7.53,-12.5,75.16,13.35
Katherine,44,AU,1562607584,71,-14.47,132.26,57.2,6.93
Alaca,1,TR,1562607952,47,40.17,34.84,71.92,5.23
Axim,100,GH,1562607796,87,4.87,-2.24,75.7,15.68
Beringovskiy,29,RU,1562607757,61,63.05,179.32,57.34,2.82
Kerema,2,PG,1562607953,84,-7.96,145.78,78.58,17.47
Lagoa,20,PT,1562607794,77,37.14,-8.45,77.0,23.04
Sandakan,75,MY,1562607953,100,5.84,118.12,73.4,8.48
Huilong,18,CN,1562607953,95,31.15,106.5,65.62,2.13
Port Hardy,90,CA,1562607804,87,50.7,-127.42,55.4,2.24
Alot,100,IN,1562607953,75,23.76,75.56,81.82,13.22
Buala,51,SB,1562607819,85,-8.15,159.59,78.58,8.75
Taltal,7,CL,1562607751,72,-25.41,-70.49,58.96,6.31
Deniliquin,3,AU,1562607953,93,-35.53,144.96,48.0,5.95
Rawson,31,AR,1562607830,44,-43.3,-65.11,56.08,4.92
Satipo,6,PE,1562607954,59,-11.26,-74.64,51.58,6.76
Soyo,21,AO,1562607813,85,-6.13,12.37,73.9,9.78
Mathbaria,98,BD,1562607954,83,22.29,89.96,82.9,9.44
Dunedin,98,NZ,1562607739,53,-45.87,170.5,48.0,8.01
Trelew,31,AR,1562607833,44,-43.25,-65.31,56.08,4.92
Rosarito,75,CO,1562607954,45,4.91,-75.23,86.0,10.29
Hami,84,CN,1562607814,16,42.84,93.51,85.06,7.18
Erenhot,100,CN,1562607954,34,43.65,111.97,75.7,6.91
Gagra,75,GE,1562607954,73,43.29,40.27,77.0,11.18
Kyren,59,RU,1562607802,78,51.68,102.13,49.24,3.2
Poya,73,NC,1562607954,67,-21.35,165.16,67.6,14.45
Abha,0,SA,1562607955,77,18.22,42.5,73.4,8.05
Borgentreich,75,DE,1562607955,51,51.57,9.24,62.6,9.17
Hamilton,90,CA,1562607731,47,43.26,-79.87,82.0,6.93
Rafaela,36,AR,1562607773,27,-31.25,-61.49,66.99,5.01
Douglasville,40,US,1562607839,55,33.75,-84.75,93.99,9.17
Lasa,0,CY,1562607822,83,34.92,32.53,82.4,9.17
Suphan Buri,100,TH,1562607955,79,14.47,100.12,82.0,3.0
Sinop,0,TR,1562607955,77,42.03,35.15,72.1,9.4
Ilhabela,0,BR,1562607955,64,-23.78,-45.36,67.78,13.0
Tuktoyaktuk,75,CA,1562607762,81,69.44,-133.03,46.4,4.7
Santa Vitoria do Palmar,16,BR,1562607955,63,-33.52,-53.37,51.94,4.97
Puchov,0,SK,1562607956,34,49.12,18.33,71.6,6.93
Zemio,97,CF,1562607798,94,5.02,25.13,70.48,3.69
Makakilo City,1,US,1562607956,94,21.35,-158.09,82.0,3.36
Pelhrimov,0,CZ,1562607956,37,49.43,15.22,68.0,6.93
Koutiala,22,ML,1562607956,40,12.39,-5.46,94.6,9.51
Belaya Gora,69,RU,1562607800,47,68.54,146.19,62.74,9.08
Xingyi,100,CN,1562607956,98,24.19,102.82,62.56,3.78
Cangzhou,92,CN,1562607957,60,38.3,116.85,77.68,3.51
Alice Springs,0,AU,1562607609,75,-23.7,133.88,44.6,4.7
Doha,0,QA,1562607720,11,25.29,51.53,105.8,14.99
Shoranur,75,IN,1562607957,88,10.76,76.27,84.0,4.7
Kudahuvadhoo,50,MV,1562607957,76,2.67,72.89,84.34,11.56
Dauphin,20,CA,1562607812,69,51.15,-100.04,75.2,3.36
Santa Rosa,100,AR,1562607957,50,-36.62,-64.29,55.72,8.3
Maryville,40,US,1562607745,62,35.76,-83.97,91.0,5.59
Raudeberg,20,NO,1562607957,63,61.99,5.14,60.8,17.22
Makinsk,60,KZ,1562607957,89,52.63,70.42,60.04,5.57
Ipixuna,75,BR,1562607802,62,-1.76,-48.8,87.8,5.82
Phangnga,20,TH,1562607958,88,8.45,98.53,77.0,2.24
Natal,40,BR,1562607830,69,-5.81,-35.21,84.2,17.22
Batemans Bay,0,AU,1562607803,96,-35.71,150.18,45.0,1.01
Eyl,0,SO,1562607958,57,7.98,49.82,82.72,24.4
Oyem,75,GA,1562607959,91,1.6,11.57,69.58,3.06
Mount Isa,40,AU,1562607575,72,-20.73,139.49,59.0,3.36
Maceio,75,BR,1562607959,69,-9.67,-35.74,78.8,14.99
Rengo,75,CL,1562607959,81,-34.41,-70.86,55.4,10.29
Bergen op Zoom,75,NL,1562607959,63,51.5,4.29,64.0,10.29
Tianpeng,100,CN,1562607959,94,28.88,112.34,67.24,8.86
Te Anau,100,NZ,1562607780,79,-45.41,167.72,41.68,10.74
Matara,41,BI,1562607959,84,-3.48,29.48,53.2,0.38
Lanzhou,40,CN,1562607959,93,36.06,103.82,55.4,2.24
Waingapu,63,ID,1562607960,92,-9.65,120.26,67.24,9.42
Saint-Francois,0,FR,1562607783,37,46.42,3.91,84.2,9.17
Alyangula,4,AU,1562607960,93,-13.85,136.42,64.4,4.79
Botwood,40,CA,1562607821,35,49.14,-55.34,75.99,18.34
Kalisz,47,PL,1562607960,54,51.76,18.08,60.01,1.99
Westlock,40,CA,1562607960,63,54.15,-113.85,64.99,5.82
Klyuchi,0,RU,1562607960,47,52.25,79.17,65.44,5.21
Santa Ana,1,MX,1562607960,10,30.54,-111.12,93.99,1.99
Sterlitamak,64,RU,1562607960,92,53.63,55.95,57.16,4.65
Artsvaberd,83,AM,1562607961,90,40.84,45.47,60.22,4.14
Kalabo,0,ZM,1562607961,13,-15.0,22.67,64.54,7.25
Golspie,20,GB,1562607961,82,57.97,-3.98,64.0,6.93
Saldanha,60,PT,1562607753,40,41.42,-6.55,74.62,10.49
Henties Bay,0,NA,1562607806,86,-22.12,14.28,57.0,11.36
Bulaevo,87,KZ,1562607961,80,54.91,70.44,58.78,10.38
Tavda,100,RU,1562607961,91,58.04,65.27,53.56,4.18
Farafangana,57,MG,1562607961,91,-22.82,47.83,68.32,4.79
Xaxim,0,BR,1562607962,39,-26.96,-52.53,75.99,4.7
Tessalit,50,ML,1562607832,8,20.2,1.01,105.76,3.4
Escondido,90,US,1562607962,68,33.12,-117.08,73.0,5.19
Sambava,0,MG,1562607783,92,-14.27,50.17,67.96,2.28
Srikakulam,75,IN,1562607962,68,18.29,83.89,84.16,7.83
Kieta,88,PG,1562607962,83,-6.22,155.63,78.94,10.09
Delta,1,US,1562607902,26,38.74,-108.07,82.4,9.17
Warrnambool,5,AU,1562607962,96,-38.38,142.48,48.0,5.01
Voh,66,NC,1562607962,72,-20.95,164.69,66.88,16.4
Ugoofaaru,52,MV,1562607832,76,5.67,73.0,84.34,12.88
Alofi,84,NU,1562607774,93,-19.06,-169.92,66.2,1.12
Bafq,10,IR,1562607804,10,31.6,55.4,86.86,11.74
Chara,20,GR,1562607963,26,39.42,22.43,95.0,12.75
Ninghai,90,CN,1562607963,94,29.29,121.42,75.99,4.47
Teloes,75,PT,1562607963,78,41.31,-8.11,73.99,3.36
Sorland,90,NO,1562607803,100,67.67,12.69,55.4,14.99
Caucaia,20,BR,1562607963,51,-3.73,-38.66,86.0,21.92
Destin,1,US,1562607963,55,30.39,-86.5,93.99,6.93
Yerbogachen,78,RU,1562607797,58,61.28,108.01,65.8,6.71
Prince George,75,CA,1562607848,82,53.92,-122.75,63.0,10.29
Severo-Yeniseyskiy,54,RU,1562607963,71,60.37,93.04,55.9,6.87
Kemi,0,FI,1562607964,37,65.74,24.56,66.2,11.41
Teya,75,MX,1562607964,55,21.05,-89.07,93.99,6.93
Pilar,0,AR,1562607964,50,-34.46,-58.91,64.99,3.36
Santa Rosalia,10,MX,1562607964,9,31.87,-112.87,88.0,8.99
Kamenka,18,MD,1562607778,67,48.03,28.7,61.3,8.57
Acajutla,70,SV,1562607727,70,13.59,-89.83,83.8,7.49
Boysun,1,UZ,1562607964,39,38.2,67.2,68.86,8.61
Vardo,90,US,1562607564,88,39.62,-77.74,73.4,9.17
Victoria,75,BN,1562607792,94,5.28,115.24,77.0,1.12
Fuerte Olimpo,0,BR,1562607965,32,-21.04,-57.87,76.06,4.74
Norman Wells,75,CA,1562607751,62,65.28,-126.83,59.0,13.87
Kijang,75,KR,1562607965,73,35.24,129.21,69.8,9.17
Qingdao,0,CN,1562607965,73,36.09,120.35,73.4,4.47
Puerto Suarez,0,BO,1562607965,46,-18.96,-57.8,73.4,9.17
Ajdabiya,0,LY,1562607830,79,30.75,20.22,78.4,15.66
Sola,87,TZ,1562607824,39,-3.17,33.8,76.6,9.17
Skaudvile,100,LT,1562607965,94,55.42,22.62,54.64,11.61
Mogwase,0,ZA,1562607965,36,-25.28,27.22,66.2,5.82
Lahaina,75,US,1562607966,88,20.87,-156.68,80.6,12.75
Robe,28,ET,1562607966,91,7.12,40.01,50.5,4.05
Olinda,48,AU,1562607966,93,-37.84,145.39,48.99,8.05
Onega,11,RU,1562607966,69,63.91,38.09,56.98,12.8
Buckeye,1,US,1562607779,10,33.37,-112.58,98.01,6.93
Tiarei,20,PF,1562607966,88,-17.53,-149.33,77.0,2.24
Vredendal,0,ZA,1562607966,84,-31.68,18.49,57.88,6.33
Bowen,40,AU,1562607829,93,-20.01,148.25,66.0,5.82
Batagay-Alyta,100,RU,1562607967,88,67.8,130.41,51.76,3.62
Isangel,1,VU,1562607795,70,-19.55,169.27,70.66,19.8
Pozo Colorado,0,PY,1562607967,39,-23.49,-58.8,71.56,7.31
Kalevala,35,FI,1562607967,68,64.12,29.58,49.78,9.6
Santa Maria,0,BR,1562607743,50,-16.02,-48.01,78.01,8.05
Bilaspur,100,IN,1562607967,76,22.08,82.15,80.92,8.55
Ziyang,97,CN,1562607967,96,30.12,104.65,68.5,1.68
Dhidhdhoo,57,MV,1562607807,78,6.88,73.1,84.16,12.24
Hamburg,20,DE,1562607744,62,53.55,10.0,61.0,14.99
Oriximina,73,BR,1562607852,60,-1.77,-55.87,87.04,2.26
Meteti,99,PA,1562607967,82,8.5,-77.98,83.62,3.87
Tabou,100,CI,1562607836,87,4.42,-7.36,73.72,6.96
Iquique,75,CL,1562607793,63,-20.22,-70.14,62.6,11.41
Meadow Lake,75,CA,1562607968,93,54.13,-108.44,53.6,9.17
Aden,39,YE,1562607968,38,12.79,45.03,94.42,10.31
Ewa Beach,40,US,1562607968,69,21.32,-158.01,82.0,6.93
Kysyl-Syr,99,RU,1562607762,95,63.9,122.77,58.42,2.04
Srednekolymsk,0,RU,1562607778,53,67.46,153.71,61.66,7.07
Ostersund,75,SE,1562607968,93,63.18,14.64,55.0,9.17
Kenai,1,US,1562607968,77,60.55,-151.26,71.01,5.82
Seoul,1,KR,1562607365,77,37.57,126.98,71.6,4.7
Bandiagara,51,ML,1562607969,39,14.35,-3.61,91.54,12.62
Shache,1,CN,1562607969,20,38.42,77.24,84.16,3.56
Caxito,40,BR,1562607969,46,-22.65,-42.51,71.6,6.93
Mogadishu,98,SO,1562607627,84,2.04,45.34,76.42,11.01
Paracuru,20,BR,1562607969,51,-3.41,-39.03,86.0,21.92
Cedral,100,MX,1562607969,31,23.82,-100.72,77.86,4.16
Agadez,0,NE,1562607970,54,16.97,7.99,84.2,18.34
Chenzhou,100,CN,1562607970,98,25.81,113.03,74.08,0.81
Turukhansk,17,RU,1562607970,95,65.8,87.96,55.9,8.79
Hagere Selam,62,ET,1562607970,95,6.48,38.52,52.84,3.85
Along,100,IN,1562607970,99,28.17,94.8,60.94,2.15
Smithers,90,CA,1562607970,87,54.78,-127.17,59.0,2.24
Gao,44,ML,1562607971,14,16.28,-0.04,104.14,12.66
Berlevag,0,NO,1562607820,87,70.86,29.09,48.2,3.36
Grindavik,75,IS,1562607765,71,63.84,-22.43,55.4,3.36
Ormara,71,PK,1562607971,84,25.21,64.64,81.64,10.18
Eisenerz,100,AT,1562607971,68,47.54,14.89,64.4,5.82
Palmer,0,AU,1562607686,93,-34.85,139.16,50.0,5.82
Lobito,3,AO,1562607971,90,-12.35,13.55,67.6,6.64
Deqing,75,CN,1562607971,100,30.54,119.97,78.01,2.24
Lima,90,PE,1562607903,77,-12.06,-77.04,64.4,9.17
San Cristobal,79,HN,1562607786,53,14.68,-86.92,82.0,5.93
Praia,0,BR,1562607971,43,-20.25,-43.81,73.0,11.41
Grand Gaube,75,MU,1562607822,88,-20.01,57.66,72.0,3.36
Port Shepstone,0,ZA,1562607972,80,-30.74,30.45,54.82,3.13
Caborca,1,MX,1562607972,10,30.58,-111.1,93.99,1.99
Solhan,71,TR,1562607972,63,38.97,41.05,59.14,6.08
Shirokiy,94,RU,1562607972,81,53.87,39.17,62.01,8.14
Boa Vista,40,BR,1562607972,62,2.82,-60.67,86.0,3.36
Constitucion,40,MX,1562607785,59,23.99,-104.67,69.01,6.78
Rocha,47,UY,1562607972,58,-34.48,-54.34,55.72,4.12
Lanxi,100,CN,1562607973,95,29.21,119.46,68.86,0.83
Aasiaat,99,GL,1562607973,68,68.71,-52.87,43.84,10.71
Bonavista,0,CA,1562607789,56,48.65,-53.11,60.22,15.19
San Ramon,75,NI,1562607973,78,12.92,-85.84,71.6,8.61
Lerwick,58,GB,1562607973,87,60.15,-1.15,55.4,9.17
Gogapur,87,IN,1562607855,81,23.55,75.52,79.66,14.65
Katsuura,75,JP,1562607764,94,33.93,134.5,71.6,10.29
Nanhai,100,CN,1562607974,81,30.13,111.78,66.88,3.85
Beregovoy,0,RU,1562607974,75,46.66,38.11,76.78,19.95
Kikerino,75,RU,1562607974,67,59.47,29.63,60.8,8.95
Vanimo,61,PG,1562607817,79,-2.67,141.3,81.1,5.91
Jiuquan,27,CN,1562607974,40,39.73,98.49,66.52,4.36
Vila,20,IT,1562607827,38,45.18,8.4,90.0,6.93
Half Moon Bay,90,US,1562607773,87,37.46,-122.43,70.0,6.93
Peniche,40,PT,1562607566,77,39.36,-9.38,77.0,10.29
Hit,0,IQ,1562607974,13,33.64,42.83,93.7,10.54
Gravelbourg,54,CA,1562607974,50,49.88,-106.56,74.08,6.82
Ballina,75,IE,1562607975,72,54.11,-9.15,63.0,8.05
Vrede,0,ZA,1562607975,51,-27.43,29.16,45.46,6.8
Ambon,0,FR,1562607975,44,47.55,-2.56,82.0,10.29
Cicevac,0,RS,1562607975,42,43.72,21.45,80.6,8.05
Marystown,0,CA,1562607975,62,47.17,-55.16,60.94,15.41
Miastko,53,PL,1562607975,77,54.0,16.98,59.0,9.84
Port Hueneme,90,US,1562607960,82,34.15,-119.2,70.0,9.17
Waddan,0,LY,1562607976,13,29.16,16.14,92.62,10.25
Sabirabad,0,AZ,1562607976,33,40.01,48.48,86.0,9.91
Marakkanam,100,IN,1562607976,44,12.2,79.95,90.64,10.0
Sicamous,90,CA,1562607733,82,50.84,-118.99,81.0,3.36
Novobirilyussy,100,RU,1562607976,83,56.95,90.69,59.68,4.88
Kattivakkam,40,IN,1562607811,70,13.22,80.32,89.6,8.05
Iranshahr,0,IR,1562607976,28,27.21,60.69,104.0,16.11
Kailua,75,US,1562607831,94,21.39,-157.74,82.0,14.99
Deputatskiy,100,RU,1562607761,93,69.3,139.9,53.02,3.53
Ekhabi,29,RU,1562607976,93,53.51,142.97,44.92,6.4
Manturovo,2,RU,1562607976,90,58.33,44.76,56.44,3.36
Paka,100,CF,1562607977,97,4.15,15.03,69.94,2.28
Mosquera,40,CO,1562607977,48,4.71,-74.23,62.6,11.41
Novikovo,100,RU,1562607977,86,51.15,37.89,58.42,2.08
Farmington,1,US,1562607977,38,36.73,-108.21,78.01,4.7
Navalmoral de la Mata,50,ES,1562607977,44,39.89,-5.54,79.0,12.8
Comodoro Rivadavia,0,AR,1562607977,58,-45.87,-67.48,57.2,6.93
Cairns,75,AU,1562607794,94,-16.92,145.77,69.8,11.41
Bayan,100,CN,1562607978,90,36.1,102.26,47.98,0.45
Ortakoy,0,TR,1562607978,26,38.74,34.04,84.2,5.82
Cravo Norte,88,CO,1562607803,78,6.3,-70.2,82.9,8.05
Mackenzie,90,CA,1562607978,93,55.34,-123.09,57.2,3.36
Bonanza,100,NI,1562607978,56,14.03,-84.62,85.96,5.64
Naryan-Mar,4,RU,1562607759,86,67.67,53.09,38.8,13.98
Talovaya,100,RU,1562607978,98,51.12,40.73,60.58,6.6
Mareeba,75,AU,1562607813,94,-16.99,145.42,69.8,11.41
Fairbanks,75,US,1562607635,52,64.84,-147.72,69.8,7.92
Nemuro,5,JP,1562607817,88,43.32,145.57,52.3,5.46
Pochutla,75,MX,1562607979,46,15.74,-96.47,91.99,14.99
Pecos,1,US,1562607979,28,31.42,-103.49,93.2,6.93
Weihai,51,CN,1562607979,45,37.5,122.11,70.0,3.0
Rome,0,IT,1562607979,70,41.89,12.48,89.6,10.29
Margate,20,AU,1562607808,75,-43.03,147.26,45.0,8.05
Tautira,20,PF,1562607830,88,-17.73,-149.15,77.0,2.24
Seydi,0,NE,1562607979,83,13.34,7.75,80.6,9.17
Carutapera,42,BR,1562607980,71,-1.2,-46.02,83.44,7.99
Churapcha,55,RU,1562607980,73,62.0,132.43,60.58,7.2
San Quintin,100,PH,1562607757,93,17.54,120.52,74.44,2.66
Gambo,100,CF,1562607980,97,4.65,22.26,71.02,1.77
Bikramganj,100,IN,1562607980,81,25.22,84.27,82.9,5.73
Dukat,0,AL,1562607980,65,40.25,19.57,81.0,4.0
Nanakuli,1,US,1562607784,94,21.39,-158.15,82.0,3.36
Zhuhai,20,CN,1562607980,56,40.71,112.04,68.0,8.95
Houma,100,CN,1562607756,73,35.63,111.36,68.68,3.47
Sabzevar,30,IR,1562607980,23,36.21,57.68,83.08,9.8
Yatou,75,CM,1562607833,100,3.63,9.81,77.0,3.36
Kendari,82,ID,1562607981,96,-3.99,122.52,72.64,1.23
Tual,26,ID,1562607981,84,-5.67,132.75,78.22,19.8
Rio Grande,0,BR,1562607879,59,-32.03,-52.1,60.8,4.7
Urubicha,1,BO,1562607981,31,-15.63,-63.08,85.78,4.34
Coari,19,BR,1562607897,54,-4.09,-63.14,86.14,4.81
Longyan,100,CN,1562607981,97,25.1,117.03,72.28,3.33
Clermont,0,FR,1562607696,43,49.38,2.41,73.99,10.29
Aklavik,75,CA,1562607759,81,68.22,-135.01,59.0,3.36
Bosobolo,92,CD,1562607981,87,4.19,19.88,72.46,1.52
Mocuba,58,MZ,1562607752,71,-16.84,36.99,62.38,4.03
Mountain Home,75,US,1562607982,43,43.13,-115.69,71.01,5.82
Honiara,40,SB,1562607982,100,-9.43,159.96,73.4,4.7
Faranah,100,GN,1562607982,88,10.04,-10.74,77.32,5.64
Kondopoga,100,RU,1562607758,93,62.21,34.27,55.4,8.95
Binga,0,ZW,1562607982,12,-17.62,27.34,62.56,5.44
Balkhash,36,KZ,1562607982,43,46.84,74.98,80.2,20.96
Porkhov,20,RU,1562607983,72,57.77,29.55,60.8,6.71
Kimbe,98,PG,1562607983,88,-5.56,150.15,72.1,3.33
Zapolyarnyy,0,RU,1562607983,66,69.43,30.82,50.0,16.11
Izhma,55,RU,1562607983,68,65.01,53.91,55.54,5.37
Lithakia,0,GR,1562607983,58,37.72,20.83,86.0,15.88
Zeya,97,RU,1562607983,83,53.74,127.27,60.22,3.31
